candidate_id,year,name,candidate_classes,candidate_confidence,category_primary,category_secondary,category_tertiary,address,district,lon_wgs84,lat_wgs84,pet_service_weight,grid_id,district_name,a_medical_flag,a_retail_flag,a_grooming_flag,a_boarding_flag,a_training_flag
00002d2bd2941226,2025,Timi猫咪工作室,A_RETAIL,high,购物服务,专卖店,宠物用品店,新地中央花园(光明大街地铁站A口步行50米),光明区,113.93756062825412,22.76358635873022,1.0,SZ500_0038_0082,光明区,0,1,0,0,0
0023af1778fe29af,2025,动物检疫申报点,A_MEDICAL,high,医疗保健服务,动物医疗场所,动物医疗场所,新田大道与碧田路交叉口东北40米,宝安区,113.82513607338753,22.69671995114253,1.15,SZ500_0015_0067,宝安区,1,0,0,0,0
0071d855d9ee3a7b,2025,维特普宠物医院五联分院,A_MEDICAL,high,医疗保健服务,动物医疗场所,宠物诊所,龙岗街道五联社区友谊路6号105,龙岗区,114.22960811732204,22.74843196950742,1.15,SZ500_0098_0080,龙岗区,1,0,0,0,0
00b2a133556e4bdc,2025,艾美宠物(中航格澜阳光花园二期店),A_MEDICAL,high,医疗保健服务,动物医疗场所,宠物诊所,观湖街道润城社区中航格澜郡二期商业街1231铺,龙华区,114.04414803017272,22.69430327971159,1.15,SZ500_0060_0067,龙华区,1,0,0,0,0
00b964058ecffbc9,2025,一隅宠净宠物,A_MEDICAL,high,医疗保健服务,动物医疗场所,宠物诊所,任屋路与兴联工业区二巷交叉口西北120米,龙岗区,114.112757017816,22.69148678941282,1.15,SZ500_0074_0067,龙岗区,1,0,0,0,0
00c48710a687da02,2025,乐宠家族(大信大厦店),A_RETAIL,high,购物服务,专卖店,宠物用品店,宝安南路2066号大信大厦M层,罗湖区,114.10551733651008,22.551882737272145,1.0,SZ500_0073_0036,福田区,0,1,0,0,0
00c930ac6aa05fd5,2025,安安宠物医院.牙科.内窥镜专科(中洲分院),A_MEDICAL,high,医疗保健服务,动物医疗场所,宠物诊所,新安街道裕安二路中洲华府8号楼112铺,宝安区,113.89895236163775,22.577459039365785,1.15,SZ500_0031_0041,宝安区,1,0,0,0,0
00c944b986f5fb7c,2025,仁明动物医院,A_MEDICAL,high,医疗保健服务,动物医疗场所,宠物诊所,春生路3号(龙岗区人民医院后门),龙岗区,114.2211528368562,22.728586333697937,1.15,SZ500_0096_0076,龙岗区,1,0,0,0,0
00fcf23eaab77500,2025,瑞派宠物医院·24小时急重症·异宠(五环白石洲院),A_MEDICAL,high,医疗保健服务,动物医疗场所,宠物诊所,沙河街道白石洲村西一坊45号101号,南山区,113.96197000315036,22.53776148797885,1.15,SZ500_0044_0032,南山区,1,0,0,0,0
01bfda91477500d7,2025,吖头宠物(岭澳花园店),A_RETAIL,high,购物服务,专卖店,宠物用品店,大鹏新区大鹏新区建设路岭澳花园3栋,龙岗区,114.47314610698844,22.59115950938968,1.0,SZ500_0149_0046,龙岗区,0,1,0,0,0
01d4d8e9f345f566,2025,桔子猫舍(坂田店),A_RETAIL,high,购物服务,专卖店,宠物用品店,坂田街道下围西一巷11-1号,龙岗区,114.05852307492933,22.638283787635743,1.0,SZ500_0063_0055,龙岗区,0,1,0,0,0
01d9131ac13ce5b2,2025,理想派宠物用品超市,A_RETAIL,high,购物服务,专卖店,宠物用品店,融创荟地下商业1层108(融创荟大门下扶梯),龙华区,114.01392373288051,22.646176580900097,1.0,SZ500_0054_0056,龙华区,0,1,0,0,0
01e001267bb89ca7,2025,安记宠物店,A_RETAIL,high,购物服务,专卖店,宠物用品店,育才路梨园新村35栋109-110,宝安区,113.9364972540393,22.675526466072835,1.0,SZ500_0038_0063,宝安区,0,1,0,0,0
01e2dc924a4e8a84,2025,宠时光宠物生活馆,A_RETAIL,high,购物服务,专卖店,宠物用品店,民治民福北路30号,龙华区,114.03117051536644,22.62390215360183,1.0,SZ500_0058_0052,龙华区,0,1,0,0,0
01f291e5d0c644aa,2025,苏欣宠物店.洗美寄养.猫舍犬舍,A_RETAIL,high,购物服务,购物相关场所,购物相关场所,辅岐路融湖二期南1门8-18号,龙岗区,114.11694904298722,22.69294133917095,1.0,SZ500_0075_0067,龙岗区,0,1,0,0,0
01feb26d05223e95,2025,宠物猫舍犬舍基地大市场,A_RETAIL,high,购物服务,专卖店,宠物用品店,龙华街道清华社区龙华和平路48号,龙华区,114.03229189685374,22.67418110715125,1.0,SZ500_0058_0063,龙华区,0,1,0,0,0
01ff96655a02479c,2025,深圳迈瑞动物医疗科技股份有限公司,A_MEDICAL,high,公司企业,公司,公司,观澜街道观澜社区观光路1301-88号银星智界三期4号楼,龙华区,114.04373571283432,22.72528889913902,1.15,SZ500_0060_0074,龙华区,1,0,0,0,0
0200b1afeba8af68,2025,侨城宠物诊所,A_MEDICAL,high,医疗保健服务,动物医疗场所,宠物诊所,沙河东路东华大厦A104,南山区,113.96112484328049,22.549843715684545,1.15,SZ500_0044_0035,南山区,1,0,0,0,0
022bac91d73bf3fb,2025,壹宠宠物用品,A_RETAIL,high,购物服务,购物相关场所,购物相关场所,南山村正一坊140,南山区,113.9100484237838,22.520085078479845,1.0,SZ500_0033_0028,南山区,0,1,0,0,0
025e58890006ebb7,2025,雅康宠物,A_MEDICAL,high,医疗保健服务,动物医疗场所,宠物诊所,振明路22-1号附近,光明区,113.90148575809272,22.7757438095242,1.15,SZ500_0030_0085,光明区,1,0,0,0,0
0264e25d43c8da5f,2025,吉宠宠物生活馆(城市山林店),A_RETAIL,high,购物服务,专卖店,宠物用品店,城市山林西商铺B109-1,南山区,113.9090504313961,22.51457260659622,1.0,SZ500_0033_0027,南山区,0,1,0,0,0
026732a02129eefa,2025,米乐乖乖宠物生活馆(欢乐港湾),A_RETAIL,high,购物服务,专卖店,宠物用品店,欢乐港湾B1-018号(临海地铁站出入口步行320米),宝安区,113.88271285638872,22.54599738717313,1.0,SZ500_0027_0034,宝安区,0,1,0,0,0
026f45ba53bcaf9d,2025,泰宁宠物医院(龙华总院),A_MEDICAL,high,医疗保健服务,动物医疗场所,宠物诊所,东环二路美丽家园北区3栋107-109商铺,龙华区,114.02797997965732,22.66084555538184,1.15,SZ500_0057_0060,龙华区,1,0,0,0,0
02a7c4b0d14e2c42,2025,宠爱有家宠物(人民路店),A_RETAIL,high,购物服务,专卖店,宠物用品店,龙华人民路与龙胜路交叉口北180米,龙华区,114.0219846611983,22.643263795197523,1.0,SZ500_0056_0056,龙华区,0,1,0,0,0
02c4501a8c5873ef,2025,暖生宠医大药房(福田店八卦岭店),A_MEDICAL,high,医疗保健服务,动物医疗场所,宠物诊所,八卦岭八卦一路工业区7栋6楼605(园岭地铁站A出口步行500米),福田区,114.09503123952766,22.56006506266155,1.15,SZ500_0071_0038,福田区,1,0,0,0,0
02e234eb5c3ca7de,2025,宠医星宠物医院,A_MEDICAL,high,医疗保健服务,动物医疗场所,宠物诊所,宝源路与金海路交叉口南120米(碧海湾地铁站B口旁),宝安区,113.851801082045,22.576811958129053,1.15,SZ500_0021_0040,宝安区,1,0,0,0,0
0317c1deae89513e,2025,新诺德动物医院,A_MEDICAL,high,医疗保健服务,动物医疗场所,宠物诊所,政丰北路90号,宝安区,113.81513271931756,22.676688161179243,1.15,SZ500_0013_0062,宝安区,1,0,0,0,0
031ac7c903f34c0c,2025,五洲宠物医疗,A_MEDICAL,high,医疗保健服务,动物医疗场所,宠物诊所,龙环二路369号2层,龙华区,114.02595930138769,22.663220568918828,1.15,SZ500_0056_0060,龙华区,1,0,0,0,0
03203dbe18d3d2ee,2025,宠物家(龙华山姆店),A_RETAIL,high,购物服务,专卖店,宠物用品店,华盛珑悦东门旁,龙华区,114.02659754449118,22.652948987876577,1.0,SZ500_0057_0058,龙华区,0,1,0,0,0
03484df48ca6bebd,2025,CatNip猫舍(龙光玖钻店),A_RETAIL,high,购物服务,专卖店,宠物用品店,红木街龙光玖钻南区4A833,龙华区,114.0184173468642,22.623332648365853,1.0,SZ500_0055_0051,龙华区,0,1,0,0,0
035c29855c6e8cb6,2025,CATS SAY萌猫馆(贝尔路店),A_RETAIL,high,购物服务,专卖店,宠物用品店,贝尔路中海日辉台1栋119号,龙岗区,114.06210589540017,22.6439327507352,1.0,SZ500_0064_0056,龙岗区,0,1,0,0,0
0389286f27f4f934,2025,灵康·中兽医·骨科·猫科,A_MEDICAL,high,医疗保健服务,动物医疗场所,兽医站,工业三路与太子路交叉口西40米,南山区,113.9106615063854,22.48998137870637,1.15,SZ500_0033_0021,南山区,1,0,0,0,0
0393556102363a26,2025,诺念宠物(潜龙·华城A区店),A_RETAIL,high,购物服务,专卖店,宠物用品店,民治大道125号,龙华区,114.03923414603784,22.612808563937183,1.0,SZ500_0059_0049,龙华区,0,1,0,0,0
03b6100c840f5439,2025,爱宝康宠物医院(龙岗中骏店),A_MEDICAL,high,医疗保健服务,动物医疗场所,宠物诊所,宝龙街道中骏四季阳光一期1栋11,龙岗区,114.29817094475185,22.72492936956684,1.15,SZ500_0112_0075,龙岗区,1,0,0,0,0
04420611423c3195,2025,米乐乖乖宠物生活馆(西丽宝能店),A_RETAIL,high,购物服务,专卖店,宠物用品店,桃源街道福光社区留仙大道3288号(塘朗地铁站D口旁)宝能环球汇(西丽店)L2层L2010-B,南山区,113.992189731725,22.593852756027417,1.0,SZ500_0050_0045,南山区,0,1,0,0,0
044dafaec0a826a6,2025,宠缘宠物托运,A_RETAIL,high,购物服务,专卖店,宠物用品店,福永街道兴围村南十巷七号,宝安区,113.82648549375467,22.63806851884241,1.0,SZ500_0016_0054,宝安区,0,1,0,0,0
0477609e7d12b8e7,2025,海兰宠物店,A_RETAIL,high,购物服务,购物相关场所,购物相关场所,海城路223-1号(坪洲地铁站D口步行340米),宝安区,113.86427373768126,22.56928198745361,1.0,SZ500_0024_0039,宝安区,0,1,0,0,0
04adef2f09dfb59f,2025,派多格宠物医院(沙头角店),A_MEDICAL,high,医疗保健服务,动物医疗场所,宠物诊所,海山街道鹏湾社区海景二路1015号深中润君临海域C区C1商铺01,盐田区,114.23869060432358,22.55921687906801,1.15,SZ500_0101_0038,盐田区,1,0,0,0,0
04bc24d1778378ab,2025,它主义宠物,A_RETAIL,high,购物服务,专卖店,宠物用品店,锦龙大道16-110,坪山区,114.3241671805699,22.684809729646503,1.0,SZ500_0118_0066,坪山区,0,1,0,0,0
04ce4c9ba27bef9e,2025,宠物心语宠物医院(应人石塘头店),A_MEDICAL|B_AQUARIUM,high,购物服务,花鸟鱼虫市场,宠物市场,石岩街道应人石社区松白路168号103,宝安区,113.91564598899456,22.65381375068633,1.15,SZ500_0034_0058,宝安区,1,0,0,0,0
0520b2a0b6817e03,2025,有间宠舍,A_RETAIL,high,购物服务,专卖店,宠物用品店,园山街道荷坳路94号,龙岗区,114.21787066004563,22.685181303267804,1.0,SZ500_0096_0066,龙岗区,0,1,0,0,0
053fa6f0429c6c0f,2025,深圳猫咪狗狗宠物店,A_RETAIL,high,购物服务,专卖店,宠物用品店,锦龙路与惠康路交叉口东北40米,龙岗区,114.1229530626201,22.600455948557805,1.0,SZ500_0077_0047,龙岗区,0,1,0,0,0
05a0c4209a784084,2025,袖虎宠物(卓悦中心东区店),A_RETAIL,high,购物服务,专卖店,宠物用品店,福华一路348号卓悦中心东区B2层,福田区,114.06098993629732,22.537973276282024,1.0,SZ500_0064_0033,福田区,0,1,0,0,0
05a19cbc5934ab9c,2025,百分百宠物(汇鑫花园店),A_RETAIL,high,购物服务,专卖店,宠物用品店,沿河南路汇鑫花园宠物城3063号10A,罗湖区,114.13127864555814,22.54545825242632,1.0,SZ500_0079_0035,罗湖区,0,1,0,0,0
05b3a39bbc7e9895,2025,袖虎宠物(艺丰花园店),A_RETAIL,high,购物服务,专卖店,宠物用品店,梅林路14号-9商铺(孖岭地铁站C口步行280米),福田区,114.0650818063903,22.572721995435646,1.0,SZ500_0065_0040,福田区,0,1,0,0,0
05dc00e2773b3998,2025,好好宠物医院龙华分院,A_MEDICAL,high,医疗保健服务,动物医疗场所,宠物诊所,和平路和平花园A栋9号商铺,龙华区,114.01596627688886,22.6536160713928,1.15,SZ500_0054_0058,龙华区,1,0,0,0,0
060b037fbfd566d7,2025,瑞鹏宠物医院(华强北分院),A_MEDICAL,high,医疗保健服务,动物医疗场所,宠物诊所,红荔路3001-6号(华新地铁站A1出口旁),福田区,114.08087352918344,22.551367229092087,1.15,SZ500_0068_0036,福田区,1,0,0,0,0
06139f61ed079488,2025,爱龙翔宠物医院(金满堂大厦店),A_MEDICAL,high,医疗保健服务,动物医疗场所,宠物诊所,流塘路13号金满堂大厦,宝安区,113.88061211582452,22.584069967335573,1.15,SZ500_0027_0042,宝安区,1,0,0,0,0
065d66c7d1be4821,2025,米依宠物医院(牙科·外科),A_MEDICAL,high,医疗保健服务,动物医疗场所,宠物诊所,华侨城香山里花园一期1栋101-102室,南山区,113.9708127760883,22.555886404282447,1.15,SZ500_0046_0036,南山区,1,0,0,0,0
068ecbf249f3adc6,2025,维可宠物医院,A_MEDICAL,high,医疗保健服务,动物医疗场所,宠物诊所,布吉街道吉华路234-18号,龙岗区,114.10685469671556,22.61462466003359,1.15,SZ500_0073_0050,龙岗区,1,0,0,0,0
075347c29cccf815,2025,犬喵梦宠物店(中铁·诺德公馆店),A_RETAIL,high,购物服务,专卖店,宠物用品店,永香路中铁诺德公馆一期2栋116号,龙岗区,114.07160790951974,22.62330530491481,1.0,SZ500_0066_0052,龙岗区,0,1,0,0,0
0757a8d5c24dc96e,2025,喵屋(景鸿商业广场店),A_RETAIL,high,购物服务,专卖店,宠物用品店,新安街道上川社区31区上合路67号景鸿商业城1,宝安区,113.89563419485027,22.579461151776364,1.0,SZ500_0030_0041,宝安区,0,1,0,0,0
078f25a675d46c85,2025,瑞派宠物医院,A_MEDICAL,high,医疗保健服务,动物医疗场所,宠物诊所,大新趣坊·JOY PLAZA,南山区,113.91359025145351,22.53582575038854,1.15,SZ500_0034_0032,南山区,1,0,0,0,0
07b7bfd8ece4690e,2025,金色世家宠物,A_RETAIL,high,购物服务,专卖店,宠物用品店,福保街道新港社区新洲路东侧新洲同创汇一层F105商铺,福田区,114.0406248332282,22.516396481687504,1.0,SZ500_0060_0028,福田区,0,1,0,0,0
08109ce21b8488d1,2025,屋虎猫馆(福田kkone店),A_RETAIL,high,购物服务,专卖店,宠物用品店,滨河大道9289号KK one时尚潮流购物中心F2层,福田区,114.02241997016937,22.530161595344723,1.0,SZ500_0056_0031,福田区,0,1,0,0,0
0815ae7ca4d78db8,2025,贝诺宠物医院,A_MEDICAL,high,医疗保健服务,动物医疗场所,宠物诊所,仙乡路与龙岗大道交叉口西北20米,龙岗区,114.27753764003396,22.745852145615743,1.15,SZ500_0108_0080,龙岗区,1,0,0,0,0
081f8feb8c1713cb,2025,哈喽猫咪领养馆宠物店,A_RETAIL,high,购物服务,专卖店,宠物用品店,沙头七路4-11号,宝安区,113.80147879034962,22.731809979671144,1.0,SZ500_0010_0075,宝安区,0,1,0,0,0
084a102c238edce2,2025,宠物美容培训,A_GROOMING,high,科教文化服务,培训机构,培训机构,联润路与布龙路辅路交叉口西南40米,龙华区,113.99231775926332,22.666262470885847,0.95,SZ500_0050_0061,龙华区,0,0,1,0,0
086ad9204d3956ba,2025,猫缘乐宠(撸猫),A_RETAIL,high,购物服务,专卖店,宠物用品店,公明静宁路61号,光明区,113.89128244549948,22.78425055414904,1.0,SZ500_0028_0087,光明区,0,1,0,0,0
0876a11b31a4fb5d,2025,宠物家(宝安天虹购物中心店),A_RETAIL,high,购物服务,专卖店,宠物用品店,西乡大道与新湖路交汇处天虹商场(合正汇一城店)L1层,宝安区,113.86017300162904,22.57815511070953,1.0,SZ500_0023_0041,宝安区,0,1,0,0,0
0886a6bf9a64dc45,2025,TOM喵馆(万科生活广场外围店),A_RETAIL,high,购物服务,专卖店,宠物用品店,新安街道海富社区万科生活广场外围商铺宝安大道2060-15号,宝安区,113.88438722666982,22.56443510965581,1.0,SZ500_0028_0038,宝安区,0,1,0,0,0
08963f7332988729,2025,新爱康宠物医院(平湖总店),A_MEDICAL,high,医疗保健服务,动物医疗场所,宠物诊所,平湖街道新河路1号平吉上苑103,龙岗区,114.11693647029664,22.670821607219168,1.15,SZ500_0075_0062,龙岗区,1,0,0,0,0
08b2175732698a32,2025,半里小宠(横岗花半里·雅筑店),A_RETAIL,high,购物服务,专卖店,宠物用品店,龙岗区横岗街道荷坳社区长江埔路74号半里小宠8号铺,龙岗区,114.22390166016584,22.6794279422182,1.0,SZ500_0097_0065,龙岗区,0,1,0,0,0
08ce740fd9e44e6d,2025,联合宠物医院(新沙分院),A_MEDICAL,high,医疗保健服务,动物医疗场所,宠物诊所,沙井街道新沙路万科翡丽郡花园二期5栋1085-1086商铺,宝安区,113.80803258797826,22.736386679309188,1.15,SZ500_0011_0076,宝安区,1,0,0,0,0
08d31bf40079fd8e,2025,宝龙宠物医院,A_MEDICAL,high,医疗保健服务,动物医疗场所,宠物诊所,东环二路美丽365花园106号商铺,龙华区,114.0258345114488,22.66428967982972,1.15,SZ500_0056_0061,龙华区,1,0,0,0,0
08db9ad59447b8d5,2025,联合宠物医院(新安分院),A_MEDICAL,high,医疗保健服务,动物医疗场所,宠物诊所,新安街道31区怡园路1135号1-8层107单元,宝安区,113.89806044550848,22.57980464040468,1.15,SZ500_0030_0041,宝安区,1,0,0,0,0
08dc1543b243e0d2,2025,宠百,A_MEDICAL|A_RETAIL,high,购物服务,专卖店,宠物用品店,南新社区布沙路167号玉岭花园,龙岗区,114.1465794594609,22.607793724390334,1.15,SZ500_0082_0049,龙岗区,1,1,0,0,0
09054fa224e2f42f,2025,瑞派宠物医院鲲鹏店,A_MEDICAL,high,医疗保健服务,动物医疗场所,宠物诊所,泉园路46-2号,南山区,113.92473521645395,22.54661041256502,1.15,SZ500_0036_0034,南山区,1,0,0,0,0
092922c997603338,2025,洗马布布宠物店,A_RETAIL,high,购物服务,专卖店,宠物用品店,赤石岗小区706号3号铺位,龙岗区,114.29423302375318,22.727258724792428,1.0,SZ500_0111_0076,龙岗区,0,1,0,0,0
09391a6afb20efa5,2025,萌宠俱乐部·赛级洗护·宠物用品·宠物寄养,A_RETAIL|A_BOARDING|B_LEISURE,high,购物服务,专卖店,宠物用品店,西丽街道万科云城三期5栋063号,南山区,113.9413784583354,22.57645861182008,1.1,SZ500_0039_0041,南山区,0,1,0,1,0
0948ae2a48accdaa,2025,小灰灰宠物生活馆(固戍花园店),A_RETAIL,high,购物服务,专卖店,宠物用品店,西乡固戍花园40号商铺,宝安区,113.84019922802892,22.59272854266508,1.0,SZ500_0019_0044,宝安区,0,1,0,0,0
09720a8650d3fa66,2025,101 PET(宝安中心店),A_RETAIL,high,购物服务,专卖店,宠物用品店,新安街道海旺社区新锦安壹号公馆1栋39号,宝安区,113.88965097547324,22.55562017740545,1.0,SZ500_0029_0036,宝安区,0,1,0,0,0
09813c5b1cb6a41d,2025,壹家宠物店(南山店),A_RETAIL,high,购物服务,专卖店,宠物用品店,桂庙路22-95瑞峰创业广场A186号,南山区,113.9209875297377,22.527710077519348,1.0,SZ500_0035_0030,南山区,0,1,0,0,0
09906f1dfdd745bd,2025,猫咪之春宠物店,A_RETAIL,high,购物服务,购物相关场所,购物相关场所,华悦路与华盛路交叉口东60米,龙华区,114.00169425256468,22.678527297612145,1.0,SZ500_0051_0064,龙华区,0,1,0,0,0
0998a8e4e7b0b102,2025,深圳市驰德郝宠物食品有限公司,A_RETAIL,high,公司企业,公司,公司,坪地街道中心社区黄竹北路五巷4号,龙岗区,114.29927217274734,22.76443465149787,1.0,SZ500_0112_0084,龙岗区,0,1,0,0,0
09992a364b7750b8,2025,胖胖家宠物生活馆,A_RETAIL,high,购物服务,专卖店,宠物用品店,龙平西路与和谐路交叉口北120米,龙岗区,114.22150920708069,22.732548551235183,1.0,SZ500_0096_0077,龙岗区,0,1,0,0,0
099e6d21024e474c,2025,贝诺宠物医院(南湾分院),A_MEDICAL,high,医疗保健服务,动物医疗场所,宠物诊所,布沙路127-131号,龙岗区,114.14744551907572,22.609080959509285,1.15,SZ500_0082_0049,龙岗区,1,0,0,0,0
0a3732da36d82c74,2025,木木宠物屋(六约分店),A_RETAIL,high,购物服务,专卖店,宠物用品店,横岗街道六约社区礼耕路18号尚景泰寓2号店一楼木木宠物屋,龙岗区,114.1848731578277,22.63947945990808,1.0,SZ500_0089_0056,龙岗区,0,1,0,0,0
0a4660fddfd6cc94,2025,玛斯宠物,A_RETAIL,high,购物服务,专卖店,宠物用品店,新沙路6号金碧诚大厦1楼1号铺,福田区,114.0428377026537,22.534457491843664,1.0,SZ500_0060_0032,福田区,0,1,0,0,0
0a4fd44e718cf7d6,2025,医佳宠物医院,A_MEDICAL,high,医疗保健服务,动物医疗场所,宠物诊所,大浪街道同胜社区金龙路1号悠山美地家园2栋B136商铺,龙华区,113.9900612905904,22.66804084690009,1.15,SZ500_0049_0061,龙华区,1,0,0,0,0
0a86355294951aa0,2025,得宠·宠物生活馆,A_RETAIL,high,购物服务,专卖店,宠物用品店,坪山街道和平社区立新西路15号201,坪山区,114.34399001810968,22.69232956660345,1.0,SZ500_0122_0068,坪山区,0,1,0,0,0
0aa1cbb605e76dc7,2025,壹+猫舍(绿景公馆1866北区店),A_RETAIL,high,购物服务,专卖店,宠物用品店,绿景公馆1866北区佐阾荟A104铺,龙华区,114.0233862524179,22.630542217020643,1.0,SZ500_0056_0053,龙华区,0,1,0,0,0
0aaa890cd09c2ba7,2025,宠物家(下梅林店),A_RETAIL,high,购物服务,专卖店,宠物用品店,梅林街道梅河社区梅华路226下梅林原股份公司103商铺,福田区,114.0369724969956,22.566093090966582,1.0,SZ500_0059_0039,福田区,0,1,0,0,0
0aba841f106a75a3,2025,一念宠物服务·善终服务,A_MEDICAL,high,医疗保健服务,动物医疗场所,宠物诊所,龙华区元芬建涛科技园A栋(元芬地铁站B口步行250米),龙华区,114.0018250844584,22.66049195355379,1.15,SZ500_0051_0060,龙华区,1,0,0,0,0
0ad259700e2dcf1f,2025,佩佩熊宠物(前海花园2期店),A_RETAIL,high,购物服务,专卖店,宠物用品店,桃园路268-7号(大新地铁站C1口步行210米),南山区,113.90798169273998,22.535524993468705,1.0,SZ500_0033_0032,南山区,0,1,0,0,0
0ae688536483772c,2025,瑞派宠物医院·皮肤科·绝育中心(佰佳百门前院),A_MEDICAL,high,医疗保健服务,动物医疗场所,宠物诊所,南湾街道宝岭社区颂雅苑101,龙岗区,114.13623004720756,22.60991956824573,1.15,SZ500_0079_0049,龙岗区,1,0,0,0,0
0af054502e38e0e6,2025,星期八宠宠物,A_RETAIL,high,购物服务,专卖店,宠物用品店,大浪街道同胜社区华荣路317号,龙华区,113.99311125267192,22.674227285145808,1.0,SZ500_0050_0063,龙华区,0,1,0,0,0
0b34d7dd9a18f73a,2025,狗友会宠物用品店(裕亨花园店),A_RETAIL,high,购物服务,专卖店,宠物用品店,裕亨路裕亨花园7栋106,福田区,114.06613037930823,22.519887303639408,1.0,SZ500_0065_0029,福田区,0,1,0,0,0
0b6d75aa74aab78e,2025,漫漫宠宠物店,A_RETAIL,high,购物服务,购物相关场所,购物相关场所,径贝新村65栋4铺(65-4宠物用品),宝安区,113.8730805938473,22.571724846604173,1.0,SZ500_0025_0039,宝安区,0,1,0,0,0
0b7c186fe631cbc4,2025,创凡宠物医院(龙华分院),A_MEDICAL,high,医疗保健服务,动物医疗场所,宠物诊所,民治街道民泰社区惠鑫公寓B栋127,龙华区,114.04100550146406,22.60324577855131,1.15,SZ500_0060_0047,龙华区,1,0,0,0,0
0b809ef7c0bb2649,2025,My MiniMe小小的我宠物生活馆(南玻科技大厦店),A_RETAIL,high,购物服务,专卖店,宠物用品店,南海大道1010号南玻科技大厦,南山区,113.91376784601324,22.495076941460425,1.0,SZ500_0034_0023,南山区,0,1,0,0,0
0b98dec8393e3923,2025,瑞鹏宠物医院(固戍院),A_MEDICAL,high,医疗保健服务,动物医疗场所,宠物诊所,航城大道怡宝花园首层10-11号,宝安区,113.85293862182326,22.61234307236838,1.15,SZ500_0021_0048,宝安区,1,0,0,0,0
0bf7e72e38bdf80a,2025,明诚宠物,A_RETAIL,high,购物服务,专卖店,宠物用品店,桂花路与厦村路交叉口南40米,龙岗区,114.15926170085396,22.614090916795213,1.0,SZ500_0084_0050,龙岗区,0,1,0,0,0
0c0de2703fc749ac,2025,佳佳源宠物店,A_RETAIL,high,购物服务,购物相关场所,购物相关场所,金鹏路与长盛路交叉口西60米,龙岗区,114.11193627813752,22.609447903094075,1.0,SZ500_0074_0049,龙岗区,0,1,0,0,0
0c62a5b35a9860d7,2025,龙翔宠物医院(华夏路),A_MEDICAL,high,医疗保健服务,动物医疗场所,宠物诊所,光明街道华夏路美景花园商铺44-28号,光明区,113.93692356920384,22.75856396266144,1.15,SZ500_0038_0081,光明区,1,0,0,0,0
0c69500fc683a777,2025,萌小糯宠物生活馆(玉华花园店),A_RETAIL,high,购物服务,专卖店,宠物用品店,人民路玉华花园玉磷阁108号,龙华区,114.02254733960916,22.643553147189994,1.0,SZ500_0056_0056,龙华区,0,1,0,0,0
0c85e0253f22b289,2025,宠壮壮宠物用品猫粮狗粮猫砂笼子连锁超市,A_RETAIL,high,购物服务,专卖店,宠物用品店,民利路与民富路交叉口西北180米,龙华区,114.03125065862956,22.619092750943,1.0,SZ500_0058_0051,龙华区,0,1,0,0,0
0c970f1e317d11e6,2025,蔚蓝宠物馆(东方瑞景苑店),A_RETAIL,high,购物服务,专卖店,宠物用品店,东方瑞景苑A座105.106商铺,龙岗区,114.26374369411282,22.73167795391709,1.0,SZ500_0105_0077,龙岗区,0,1,0,0,0
0c9c9a3f09e56798,2025,可可拉宠物酒店,A_BOARDING,high,购物服务,专卖店,专营店,龙岗街道南联社区沿河南路27-50号金地凯旋广场1栋E单元101商铺,龙岗区,114.24499375483316,22.71431708096709,1.1,SZ500_0101_0073,龙岗区,0,0,0,1,0
0cb4ce304cf9fe55,2025,猫博士24h宠物医院猫骨科急重症异宠专科,A_MEDICAL,high,医疗保健服务,动物医疗场所,宠物诊所,畔湖一路191号(凤凰城地铁站A口步行180米),光明区,113.92739922902813,22.748274003461667,1.15,SZ500_0036_0079,光明区,1,0,0,0,0
0cedc9a6c752d811,2025,胖虎宠物用品店,A_RETAIL,high,购物服务,专卖店,宠物用品店,布龙路辅路与和勘一路交叉口北160米,龙岗区,114.0572260854948,22.630732461753563,1.0,SZ500_0063_0053,龙岗区,0,1,0,0,0
0cfc090fb7cb42d2,2025,宠物家(石厦北店),A_RETAIL,high,购物服务,专卖店,宠物用品店,福保街道明月社区石厦北三街7号华荣净菜市场111商铺,福田区,114.0494503205154,22.52803731584333,1.0,SZ500_0062_0030,福田区,0,1,0,0,0
0dcba93c66b29c3d,2025,创凡宠物医院(西乡分院),A_MEDICAL,high,医疗保健服务,动物医疗场所,宠物诊所,西乡街道碧海富通城15栋101,宝安区,113.84949360242564,22.572274541025976,1.15,SZ500_0021_0039,宝安区,1,0,0,0,0
0dd958d98b9600c7,2025,瑞鹏宠物医院(泰宁分院),A_MEDICAL,high,医疗保健服务,动物医疗场所,宠物诊所,爱国路泰宁广场3041号,罗湖区,114.13660557454384,22.56841240342856,1.15,SZ500_0080_0040,罗湖区,1,0,0,0,0
0ddbae262afef70e,2025,于小二宠物(可乐园店),A_RETAIL,high,购物服务,专卖店,宠物用品店,可乐园东门旁,龙华区,113.99488624085193,22.66704755071313,1.0,SZ500_0050_0061,龙华区,0,1,0,0,0
0e193c57ea804aa4,2025,阿尔法宠物生活馆(清林路店),A_RETAIL,high,购物服务,专卖店,宠物用品店,清林路194号,龙岗区,114.22582301652837,22.722701467170424,1.0,SZ500_0097_0074,龙岗区,0,1,0,0,0
0e1d9c438d064d8a,2025,联合宠物医院(福永分院),A_MEDICAL,high,医疗保健服务,动物医疗场所,宠物诊所,福永街道白石厦社区政丰北路121-2号,宝安区,113.81475273162384,22.676583491262267,1.15,SZ500_0013_0062,宝安区,1,0,0,0,0
0e2258e02c8795ac,2025,萌柒柒宠物,A_RETAIL,high,购物服务,专卖店,宠物用品店,浪荣路12-5号,龙华区,113.98708383177126,22.696645879037053,1.0,SZ500_0048_0068,龙华区,0,1,0,0,0
0e32236ce25095a7,2025,皮皮宠物馆·猫舍狗舍·宠物基地,A_RETAIL,high,购物服务,专卖店,宠物用品店,金龙路与华玺路交叉口东南240米,龙华区,114.03013905817264,22.60306318598684,1.0,SZ500_0058_0047,龙华区,0,1,0,0,0
0e44db10dee93345,2025,爪爪喵星球(华强北店),A_RETAIL,high,购物服务,专卖店,宠物用品店,中航路中航城天虹购物中心D区4层26号商铺,福田区,114.0788752505294,22.54515733049332,1.0,SZ500_0068_0034,福田区,0,1,0,0,0
0e73d6f5cd789538,2025,爱鑫宠物医院(黄贝岭三路店),A_MEDICAL,high,医疗保健服务,动物医疗场所,宠物诊所,黄贝岭三路与黄贝岭一路交叉口南200米,罗湖区,114.13556736676532,22.5517064625429,1.15,SZ500_0080_0036,罗湖区,1,0,0,0,0
0eddff9ad22f9791,2025,狗爸爸宠物犬猫洗护中心(流塘店),A_MEDICAL,high,医疗保健服务,动物医疗场所,动物医疗场所,新安五路辅路与宝民二路交叉口东北120米,宝安区,113.88419095349266,22.579794335114524,1.15,SZ500_0028_0041,宝安区,1,0,0,0,0
0f7c496b04da86ca,2025,新宠到家宠物服务中心(何屋综合楼店),A_RETAIL,high,购物服务,专卖店,宠物用品店,布吉莲花路113号,龙岗区,114.1062168805662,22.601036486243945,1.0,SZ500_0073_0047,龙岗区,0,1,0,0,0
0f89f83ca88bc012,2025,古德喵星球,A_RETAIL,high,购物服务,专卖店,宠物用品店,布吉百合星城一期D栋12c,龙岗区,114.11597055272564,22.60105380625461,1.0,SZ500_0075_0047,龙岗区,0,1,0,0,0
0f9aedf0c414d11d,2025,我宠我爱宠物用品专营店,A_RETAIL,high,购物服务,专卖店,宠物用品店,园山街道保安社区坳东路14-2号,龙岗区,114.20711766325712,22.670706848317312,1.0,SZ500_0094_0063,龙岗区,0,1,0,0,0
0f9f1d0eedfe65b5,2025,德康宠物诊疗中心,A_MEDICAL,high,医疗保健服务,动物医疗场所,宠物诊所,西乡固戍下围园旭达高端智造产业园1003,宝安区,113.83979260154553,22.60131161359654,1.15,SZ500_0018_0046,宝安区,1,0,0,0,0
0fa690b585f20be4,2025,仁爱宠物诊所,A_MEDICAL,high,医疗保健服务,动物医疗场所,宠物诊所,石岩街道龙腾社区老街二区19号201,宝安区,113.92637681056608,22.68408777020219,1.15,SZ500_0036_0065,宝安区,1,0,0,0,0
0fa744f3e387502e,2025,鹏博医宠,A_MEDICAL,high,医疗保健服务,动物医疗场所,宠物诊所,留新四街与打石一路交叉口西北60米,南山区,113.94208469137796,22.57563447002315,1.15,SZ500_0040_0041,南山区,1,0,0,0,0
0fb5d63ab09929a5,2025,港岛宠物猫狗基地馆(汇龙苑店),A_RETAIL,high,购物服务,专卖店,宠物用品店,梅龙路白石龙汇龙苑5栋102,龙华区,114.0369898758883,22.60593811639133,1.0,SZ500_0059_0048,龙华区,0,1,0,0,0
0fb8144b6f3640bd,2025,和宠一起宠物用品超市,A_RETAIL,high,购物服务,专卖店,宠物用品店,海汇十巷与海汇路交叉口北40米,宝安区,113.8802824019308,22.57106614849705,1.0,SZ500_0027_0039,宝安区,0,1,0,0,0
0fc204b22cdce2be,2025,宠物家(春华四季园店),A_RETAIL,high,购物服务,专卖店,宠物用品店,民治街道民康路68号春华四季园,龙华区,114.05005312783076,22.62466733635821,1.0,SZ500_0062_0052,龙华区,0,1,0,0,0
1052870b931cf354,2025,卧岛猫咪洗护专门店(宝安灵芝店),A_RETAIL,high,购物服务,专卖店,宠物用品店,勤诚达和园1号楼150号,宝安区,113.90409424596544,22.57464843019461,1.0,SZ500_0032_0040,宝安区,0,1,0,0,0
109e5f6c97cf4d88,2025,遛GO宠物(富豪花园店),A_RETAIL,high,购物服务,专卖店,宠物用品店,公明街道合水口社区金辉路富豪花园A区11-17号,光明区,113.88936226993914,22.78139557541429,1.0,SZ500_0028_0086,光明区,0,1,0,0,0
10a9240824e69328,2025,三合宠物医院,A_MEDICAL,high,医疗保健服务,动物医疗场所,宠物诊所,沙井街道和一新村三合宠物诊疗中心,宝安区,113.78546379502328,22.7169551099153,1.15,SZ500_0007_0071,宝安区,1,0,0,0,0
10c53041fd6a9355,2025,邻小虎宠物用品猫粮·狗粮·猫砂快送超市(双龙店),A_RETAIL,high,购物服务,专卖店,宠物用品店,石桥头九巷3号,龙岗区,114.26977096817018,22.73563998368847,1.0,SZ500_0106_0077,龙岗区,0,1,0,0,0
10c77f09c0aaf6ac,2025,有它宠物生活馆,A_RETAIL,high,购物服务,专卖店,宠物用品店,航城街道九围新村四区172号-1-102,宝安区,113.85619612709776,22.64974363768849,1.0,SZ500_0022_0057,宝安区,0,1,0,0,0
10e1fa982749692b,2025,宠物家(桃源村店),A_RETAIL,high,购物服务,专卖店,宠物用品店,龙珠六路皇庭香格里花园108号,南山区,113.97537712031826,22.564259158892103,1.0,SZ500_0046_0038,南山区,0,1,0,0,0
11020b9d25773075,2025,瑞鹏宠物医院(侨香分院),A_MEDICAL,high,医疗保健服务,动物医疗场所,宠物诊所,香蜜湖街道香安社区侨香路侨香公馆3栋1层14号,福田区,114.0016567958225,22.54728894709197,1.15,SZ500_0052_0035,福田区,1,0,0,0,0
1108afe6ea0ebf0a,2025,伯拉宠物医院(玖龙荟O PARK店),A_MEDICAL,high,医疗保健服务,动物医疗场所,宠物诊所,赤公坑路118号(白石龙地铁站C1口步行300米),龙华区,114.03645416764051,22.60214800629361,1.15,SZ500_0059_0047,龙华区,1,0,0,0,0
110d540e13924561,2025,左左宠物屋(南威中心花园店),A_RETAIL,high,购物服务,专卖店,宠物用品店,南威中心花园8栋108商铺,龙岗区,114.13867160553411,22.60876124979297,1.0,SZ500_0080_0049,龙岗区,0,1,0,0,0
11183a4ac89fa0bf,2025,宠之娇爱堡宠物店,A_RETAIL,high,购物服务,专卖店,宠物用品店,龙岗街道龙岗墟社区华特步行街6-18号9-11号,龙岗区,114.26678555887402,22.73287684457108,1.0,SZ500_0106_0077,龙岗区,0,1,0,0,0
111d6cf3fe62fc85,2025,深圳市善粮宠物用品有限公司,A_RETAIL,high,公司企业,公司,公司,恒邦置地大厦2603,福田区,113.992552068199,22.54320979480157,1.0,SZ500_0050_0034,南山区,0,1,0,0,0
112dc2821324d49c,2025,联康宠物医院,A_MEDICAL,high,医疗保健服务,动物医疗场所,宠物诊所,田寮田盛路39号,光明区,113.8969866678058,22.734361221037314,1.15,SZ500_0030_0076,光明区,1,0,0,0,0
11637fa4f526d6dd,2025,小精灵宠物(平湖店),A_RETAIL,high,购物服务,专卖店,宠物用品店,平湖街道融湖中心城7C164商铺,龙岗区,114.11431085594285,22.69677145832792,1.0,SZ500_0074_0068,龙岗区,0,1,0,0,0
116ace9380e7d7fe,2025,Happypets福宠(祥和花园1期店),A_RETAIL,high,购物服务,专卖店,宠物用品店,莲塘街道鹏兴社区聚宝路17号祥和花园一期43-1号,罗湖区,114.16367467825742,22.565254361387066,1.0,SZ500_0085_0039,罗湖区,0,1,0,0,0
118eef4efcbfff13,2025,卷毛巷宠物店,A_RETAIL,high,购物服务,专卖店,宠物用品店,太宁路1号梅州大厦1层7-6号商铺,罗湖区,114.13670474903051,22.569121471524543,1.0,SZ500_0080_0040,罗湖区,0,1,0,0,0
11a8c28b6463c84b,2025,嘉乐宠物屋(正东名苑店),A_RETAIL,high,购物服务,专卖店,宠物用品店,正东名苑2B-122(南光地铁站B2口步行430米),南山区,113.92008497789868,22.52329203082388,1.0,SZ500_0035_0029,南山区,0,1,0,0,0
11ae1c7c4e3eaa31,2025,瑞鹏宠物医院(大芬店),A_MEDICAL,high,医疗保健服务,动物医疗场所,宠物诊所,龙岗大道2247号(大芬地铁站C出口旁),龙岗区,114.13317894235804,22.61748021564114,1.15,SZ500_0079_0051,龙岗区,1,0,0,0,0
11cf130aab86f865,2025,猫十七宠物(蛇口店),A_RETAIL,high,购物服务,专卖店,宠物用品店,后海大道与工业七路交汇处西侧蛇口四海公寓B座28号铺,南山区,113.92682142176592,22.49719116074414,1.0,SZ500_0037_0023,南山区,0,1,0,0,0
11f6a22d22ae1496,2025,小佩宠物(后瑞店),A_RETAIL,high,购物服务,专卖店,宠物用品店,航城街道后瑞社区新瑞路21号G111,宝安区,113.82901953170246,22.634991892355387,1.0,SZ500_0016_0053,宝安区,0,1,0,0,0
11fc627458b04bb0,2025,派特佳宠物医院(缤纷世纪公寓店),A_MEDICAL|A_RETAIL,high,购物服务,专卖店,宠物用品店,缤纷世纪公寓B座1层23号,龙岗区,114.22506291045384,22.705294542458752,1.15,SZ500_0097_0070,龙岗区,1,1,0,0,0
121d0b24a519bd03,2025,YOHO有点东西宠物店(爱联店),A_RETAIL,high,购物服务,购物相关场所,购物相关场所,余岭中路7号201,龙岗区,114.22648529891678,22.70324233186921,1.0,SZ500_0097_0070,龙岗区,0,1,0,0,0
122bfae988caa484,2025,深圳多乐萌宠宠物基地猫舍犬舍宠物店宠物市场,A_RETAIL|B_LEISURE,high,虚拟数据,虚拟店铺,虚拟店铺,南头街道正云路85号,南山区,113.92360368509088,22.54566361119121,1.0,SZ500_0036_0034,南山区,0,1,0,0,0
122f7b546a6de6d9,2025,宠宠屋,A_RETAIL,high,购物服务,专卖店,宠物用品店,建设路387号金茂府1栋AB座1楼106-107商铺,龙华区,114.00805750346996,22.64273774540444,1.0,SZ500_0053_0056,龙华区,0,1,0,0,0
123749ccedea88b4,2025,爱心博士宠物医院,A_MEDICAL,high,医疗保健服务,动物医疗场所,宠物诊所,观光路2769号(凤凰城地铁站A口步行260米),光明区,113.92726530481356,22.74816019086965,1.15,SZ500_0036_0079,光明区,1,0,0,0,0
1263da3f32fea002,2025,爱多宠物医院,A_MEDICAL,high,医疗保健服务,动物医疗场所,宠物诊所,公明镇康乐路53号,光明区,113.8855948485036,22.786705507878263,1.15,SZ500_0027_0087,光明区,1,0,0,0,0
128f9bf69b75fe7f,2025,啾啾宠物屋,A_RETAIL,high,购物服务,专卖店,宠物用品店,羊台山路27号,宝安区,113.9432885120579,22.681736643860795,1.0,SZ500_0039_0064,宝安区,0,1,0,0,0
1291ea7c7949755a,2025,宠萌宠物·宠物售卖,A_RETAIL|B_LEISURE,high,购物服务,专卖店,宠物用品店,布吉街道东方半岛社区布龙路2号半岛苑1栋115,龙岗区,114.12387074189192,22.6152876284756,1.0,SZ500_0077_0050,龙岗区,0,1,0,0,0
12a024b0dc0ed1a5,2025,Kanine 宠物用品商店,A_RETAIL,high,购物服务,购物相关场所,购物相关场所,壹方城L1-047A(宝安中心地铁站F口步行330米),宝安区,113.8829195676972,22.55558379941838,1.0,SZ500_0027_0036,宝安区,0,1,0,0,0
12b9e7d291c61f11,2025,爱丁堡宠物,A_MEDICAL,high,医疗保健服务,动物医疗场所,宠物诊所,莲塘街道国威路36号莲塘第一工业区135栋101,罗湖区,114.1701029581666,22.56755024340297,1.15,SZ500_0087_0040,罗湖区,1,0,0,0,0
12d83d90cd5e0f69,2025,深圳喵喵宠物食品科技有限公司,A_RETAIL,high,公司企业,公司,公司,彩田路辅路与深南大道辅路交叉口南80米,福田区,114.06209057224248,22.54183325201109,1.0,SZ500_0064_0034,福田区,0,1,0,0,0
12de645da9dd93a9,2025,猫着CATTING猫咪寄养馆(龙禧雅苑店),A_RETAIL,high,购物服务,专卖店,宠物用品店,"龙岗街道珑禧雅苑底商D046号(距小区东门100米,近玉岭路)",龙岗区,114.24048074710858,22.74390334779704,1.0,SZ500_0100_0079,龙岗区,0,1,0,0,0
12f1373f74aeb926,2025,艾派宠物医院,A_MEDICAL,high,医疗保健服务,动物医疗场所,宠物诊所,龙华街道景龙社区华盛珑悦1栋B座163号铺,龙华区,114.0254222032914,22.65249332044517,1.15,SZ500_0056_0058,龙华区,1,0,0,0,0
12fb8706fa0e0e61,2025,巷遇宠物店,A_RETAIL,high,购物服务,专卖店,宠物用品店,常兴新村75-1号铺面(家乐福停车场内),南山区,113.91509362387826,22.53255109755461,1.0,SZ500_0034_0031,南山区,0,1,0,0,0
12fe6385399c5f60,2025,小荷动物医院(宜城风景店),A_MEDICAL,high,医疗保健服务,动物医疗场所,宠物诊所,龙岗大道3018号宜城风景花园B-1F15商铺,龙岗区,114.3016161029479,22.769323276130816,1.15,SZ500_0113_0085,龙岗区,1,0,0,0,0
13205f3e63955357,2025,宠物健康会所,A_MEDICAL,high,医疗保健服务,动物医疗场所,宠物诊所,富通丽沙幼儿园东门南230米,宝安区,113.8249301515891,22.71788093968504,1.15,SZ500_0015_0072,宝安区,1,0,0,0,0
1347bb10d4e7d2b4,2025,深圳上水宠物,A_RETAIL,high,购物服务,专卖店,宠物用品店,吉华街道水径社区上水径官坑北三巷9号101,龙岗区,114.10290417530663,22.62162336054101,1.0,SZ500_0072_0051,龙岗区,0,1,0,0,0
1351baebe3e0cd0d,2025,君萌宠物(只售卖狗狗)(南山店),A_RETAIL|B_LEISURE,high,购物服务,专卖店,宠物用品店,西丽街道大磡社区大勘工业区工业二路26号203,南山区,113.97408170919653,22.61648500083,1.0,SZ500_0046_0050,南山区,0,1,0,0,0
135d42cab46bbfc7,2025,原住民萌宠(共和新村B区店),A_RETAIL|B_LEISURE,high,购物服务,专卖店,宠物用品店,龙华街道共和新村B区31栋原住民萌宠,龙华区,114.03570529042584,22.653720818832568,1.0,SZ500_0058_0058,龙华区,0,1,0,0,0
1362b0c68f3ea8d5,2025,瑞景宠物医院,A_MEDICAL,high,医疗保健服务,动物医疗场所,宠物诊所,民治街道大岭社区中央原著花园藏珑苑25-26号,龙华区,114.0182850285909,22.633125304572623,1.15,SZ500_0055_0054,龙华区,1,0,0,0,0
136de38166769cb0,2025,繁森宠物生活馆(宠物店),A_RETAIL,high,购物服务,专卖店,宠物用品店,翻身41区59栋101,宝安区,113.89520184956066,22.5622638253695,1.0,SZ500_0030_0037,宝安区,0,1,0,0,0
137d7b0ab500d6b1,2025,陪Ta宠物(新天·石厦花园店),A_RETAIL,high,购物服务,专卖店,宠物用品店,福保街道石厦北二街02号石厦花园商铺13A陪Ta宠物店,福田区,114.04712429237064,22.52254949593932,1.0,SZ500_0061_0029,福田区,0,1,0,0,0
138d1800b81027af,2025,碧海一心宠物医院(坪洲分院),A_MEDICAL,high,医疗保健服务,动物医疗场所,宠物诊所,西乡街道渔业社区碧湾雅园海城路1991栋1-3,宝安区,113.86470764075916,22.569912523078628,1.15,SZ500_0024_0039,宝安区,1,0,0,0,0
13d2cb59c7d872f3,2025,旺德福宠物用品有限公司,A_RETAIL,high,购物服务,专卖店,宠物用品店,松白路2049号,宝安区,113.92288320481734,22.667477180462235,1.0,SZ500_0035_0061,宝安区,0,1,0,0,0
1400569f0341d42f,2025,天美宠物馆,A_RETAIL,high,购物服务,专卖店,宠物用品店,南山街道荔湾社区前海路0389号雷圳海景花园1栋101-2,南山区,113.9008378423251,22.51446372445158,1.0,SZ500_0031_0027,南山区,0,1,0,0,0
142e6dd18732131b,2025,懒猫宠物(横岗店),A_RETAIL,high,购物服务,专卖店,宠物用品店,荣德时代广场2层T228商铺,龙岗区,114.20492788030624,22.65354036861228,1.0,SZ500_0093_0059,龙岗区,0,1,0,0,0
14959c2aacf0543f,2025,瑞派佰佳宠物医院24小时骨外科中心,A_MEDICAL,high,医疗保健服务,动物医疗场所,宠物诊所,龙华和平路与东环一路交叉口西60米,龙华区,114.02176918921768,22.65826135950593,1.15,SZ500_0056_0059,龙华区,1,0,0,0,0
14b454e79b1a0e23,2025,爱鹦悦宠物屋,A_RETAIL,high,购物服务,专卖店,宠物用品店,坪地街道年丰社区围肚新村19-2号,龙岗区,114.32841343063085,22.767729021825808,1.0,SZ500_0118_0085,龙岗区,0,1,0,0,0
14e5806bbc48ba99,2025,联合宠物医院(黄贝岭分院),A_MEDICAL,high,医疗保健服务,动物医疗场所,宠物诊所,深南东路集浩大厦1楼1086号,罗湖区,114.13064810727218,22.549225184017686,1.15,SZ500_0079_0035,罗湖区,1,0,0,0,0
155121bdd7b58626,2025,糖糖宠物用品超市,A_RETAIL,high,购物服务,专卖店,宠物用品店,南湾街道丹竹头社区岭背东十四巷4号103,龙岗区,114.14674597867868,22.62154879957753,1.0,SZ500_0081_0052,龙岗区,0,1,0,0,0
15c4c3e23a78f3f8,2025,多猫宠物用品,A_RETAIL,high,购物服务,专卖店,宠物用品店,坂田街道杨美社区长坑区四巷10号第2栋B座102,龙岗区,114.05935262944574,22.63091472702521,1.0,SZ500_0063_0053,龙岗区,0,1,0,0,0
15cf5a5472e825d7,2025,爪爪喵星球(来福士店),A_RETAIL,high,购物服务,专卖店,宠物用品店,南海大道2163号来福士F2层(南油地铁站E口旁),南山区,113.92084040334684,22.514339724070915,1.0,SZ500_0035_0027,南山区,0,1,0,0,0
15d031d94d24f988,2025,SUPAW HUB(来福士店),A_RETAIL,high,购物服务,专卖店,宠物用品店,南海大道2163号来福士广场01-56A,南山区,113.92050842131408,22.515077981227066,1.0,SZ500_0035_0027,南山区,0,1,0,0,0
15e8efea11a7cff1,2025,PETS ZONE(海韵嘉园店),A_RETAIL,high,购物服务,专卖店,宠物用品店,望海路1088-8号,南山区,113.92106898593116,22.48847686035192,1.0,SZ500_0036_0021,南山区,0,1,0,0,0
15f6b96ce2817e3e,2025,壹诺宠物医院犬猫全科转诊中心,A_MEDICAL,high,医疗保健服务,动物医疗场所,宠物诊所,龙华街道香缇雅苑1栋1-10号,龙华区,114.03829974833891,22.64603493125648,1.15,SZ500_0059_0057,龙华区,1,0,0,0,0
160769164f1e8cca,2025,啡灵宠物馆,A_RETAIL,high,购物服务,专卖店,宠物用品店,新洲三街85号福昌苑,福田区,114.037953100669,22.52762848219019,1.0,SZ500_0060_0030,福田区,0,1,0,0,0
160b90e5fbfdebb4,2025,芭比堂动物医院(海湾明珠分院),A_MEDICAL,high,医疗保健服务,动物医疗场所,宠物诊所,西乡街道永丰社区新湖路中段海湾明珠6栋悦和路2-51,宝安区,113.85610151189672,22.577483904563948,1.15,SZ500_0022_0041,宝安区,1,0,0,0,0
16200cc10b9a086a,2025,遇见萌友宠物生活馆(樟坑二区店),A_RETAIL,high,购物服务,专卖店,宠物用品店,民治街道樟坑二区88栋侧面专梯上二楼整层,龙华区,114.03020883815717,22.61956743206156,1.0,SZ500_0058_0051,龙华区,0,1,0,0,0
1647b9b47da7f966,2025,猫猫时代宠物店,A_RETAIL,high,购物服务,购物相关场所,购物相关场所,新桥街道上星社区上星莲塘中区六巷6号华凌路116号,宝安区,113.82937509625286,22.734209706221503,1.0,SZ500_0016_0075,宝安区,0,1,0,0,0
164ff9b1dfcf997f,2025,鲲鹏宠物店,A_RETAIL,high,购物服务,购物相关场所,购物相关场所,泉圆路麒麟花园西门麒麟商业街,南山区,113.92473521645395,22.54661041256502,1.0,SZ500_0036_0034,南山区,0,1,0,0,0
1657e6f87d4caf5f,2025,爱心宠物医院(环镇路店24小时急诊),A_MEDICAL,high,医疗保健服务,动物医疗场所,宠物诊所,沙井镇环镇路29号,宝安区,113.80741900886676,22.736964444486013,1.15,SZ500_0011_0076,宝安区,1,0,0,0,0
1668c439396ce3d4,2025,深圳猫舍犬舍宠物市场基地宠物店直销宠萌(只卖猫狗活体),A_RETAIL,high,虚拟数据,虚拟店铺,虚拟店铺,深圳鹏润达环球服贸广场,龙华区,114.01749820460051,22.628588401206777,1.0,SZ500_0055_0053,龙华区,0,1,0,0,0
166cae1e0bf2d8bb,2025,喵语猫舍,A_RETAIL,high,购物服务,专卖店,宠物用品店,嘉龙山庄嘉华园105栋,龙华区,114.0363242017632,22.63631068420168,1.0,SZ500_0059_0054,龙华区,0,1,0,0,0
166d171b72dbe34f,2025,PETEM POWER(深圳万象天地店),A_RETAIL,high,购物服务,专卖店,宠物用品店,深南大道9668号深圳万象天地L2层,南山区,113.9513649509488,22.54523924403757,1.0,SZ500_0042_0034,南山区,0,1,0,0,0
167be7c05acd627b,2025,乐生宠物(万科第五园三期店),A_RETAIL,high,购物服务,专卖店,宠物用品店,坂田街道万科第五园(三期)B3栋商铺D145,龙岗区,114.06506975065132,22.619690595385343,1.0,SZ500_0065_0051,龙岗区,0,1,0,0,0
167c210d878019e9,2025,深圳优宠宠物店萌宠宠物市场猫舍犬舍宠物基地,A_RETAIL|B_LEISURE,high,虚拟数据,虚拟店铺,虚拟店铺,,龙华区,114.03460730199647,22.62578891210782,1.0,SZ500_0058_0052,龙华区,0,1,0,0,0
167cfff95b8b6acc,2025,哼哼唧唧宠物工作室(阳光科创中心E公寓店),A_RETAIL,high,购物服务,专卖店,宠物用品店,南新路与商华路交叉口东北160米,南山区,113.91024565427077,22.51740610217638,1.0,SZ500_0033_0028,南山区,0,1,0,0,0
16b77c838ee9f1de,2025,贝诺宠物医院(六约分院),A_MEDICAL,high,医疗保健服务,动物医疗场所,宠物诊所,横岗街道红棉路中海大山地26栋121,龙岗区,114.17356835141854,22.645774106103364,1.15,SZ500_0087_0057,龙岗区,1,0,0,0,0
171b49df7b404538,2025,宠物家(景田北店),A_RETAIL,high,购物服务,专卖店,宠物用品店,狮岭社区莲花西路2075号香丽大厦101D,福田区,114.03503607914864,22.55433601852088,1.0,SZ500_0059_0036,福田区,0,1,0,0,0
17300fd3e7ebf97a,2025,医诺宠物医院·24小时龙华总院转诊中心,A_MEDICAL,high,医疗保健服务,动物医疗场所,宠物诊所,民治街道红山社区东泉新村22-27栋22-23栋101,龙华区,114.02676092922124,22.626020650949595,1.15,SZ500_0057_0052,龙华区,1,0,0,0,0
17412b96967cc28b,2025,Fluffy毛毛怪宠物生活馆,A_RETAIL,high,购物服务,专卖店,宠物用品店,西乡街道劳动社区宝源二区263号102,宝安区,113.8583131118006,22.571637001954954,1.0,SZ500_0022_0039,宝安区,0,1,0,0,0
1780246bf42b975c,2025,爪爪喵星球(卓悦中心店),A_RETAIL,high,购物服务,专卖店,宠物用品店,福田街道福华路348号ONEAVENUE卓悦中心商场B2层122,福田区,114.05959234325476,22.53923752528429,1.0,SZ500_0064_0033,福田区,0,1,0,0,0
17addac4b24bd7d6,2025,Adograble哆宝宠物(枫叶·望海公馆店),A_RETAIL,high,购物服务,专卖店,宠物用品店,广东省南山区蛇口街道东角头社区望海路1146号枫叶望海公馆B栋7号铺,南山区,113.92869515448636,22.485658985864244,1.0,SZ500_0037_0021,南山区,0,1,0,0,0
17ca2a4ffb6e3be8,2025,天天宠物医院,A_MEDICAL,high,医疗保健服务,动物医疗场所,宠物诊所,中康路天源梅林居红梅轩101商铺,福田区,114.05358677145928,22.56856598219884,1.15,SZ500_0063_0039,福田区,1,0,0,0,0
17d515dbd157a5cf,2025,瑞美宠物美容(梅林店),A_MEDICAL|A_GROOMING,high,医疗保健服务,动物医疗场所,动物医疗场所,梅林路碧荔花园135号(下梅林地铁站C口步行450米),福田区,114.04161555040702,22.570173465906628,1.15,SZ500_0060_0040,福田区,1,0,1,0,0
17f3e8fd88ff09de,2025,猫先生猫咖生活馆,A_RETAIL|B_LEISURE,high,购物服务,专卖店,宠物用品店,布吉街道莲花山庄芙蓉苑107号独栋别墅,龙岗区,114.1014910732206,22.6035759478582,1.0,SZ500_0072_0047,龙岗区,0,1,0,0,0
1802c64bbb2b45aa,2025,星期五宠咖,A_RETAIL,high,购物服务,专卖店,宠物用品店,西丽街道新围社区新围旺棠工业区21栋厂房104,南山区,113.94537675255688,22.588949877336265,1.0,SZ500_0040_0044,南山区,0,1,0,0,0
181d1063ed4a3cae,2025,汪小艾宠物生活馆(深圳湾店),A_RETAIL,high,购物服务,专卖店,宠物用品店,三湘海尚A098,南山区,113.93656287227832,22.50687209418149,1.0,SZ500_0039_0025,南山区,0,1,0,0,0
182b0346582be5aa,2025,喵喵万事屋宠物店,A_RETAIL,high,购物服务,专卖店,宠物用品店,布吉街道一村树山8-3号,龙岗区,114.10988885738142,22.60593132830329,1.0,SZ500_0074_0048,龙岗区,0,1,0,0,0
188fec80d7a53d24,2025,润泰宠物医院·24h·骨科·猫科·转诊中心(公明分院),A_MEDICAL,high,医疗保健服务,动物医疗场所,宠物诊所,公明街道红花中路25小区19栋F102,光明区,113.89510217329702,22.77611369604504,1.15,SZ500_0029_0085,光明区,1,0,0,0,0
189c70b677d6b7b1,2025,哆米乐宠物(恒地·悦山湖店),A_RETAIL,high,购物服务,专卖店,宠物用品店,横一路恒地悦山湖花园,龙岗区,114.18179903666,22.65426085622289,1.0,SZ500_0089_0059,龙岗区,0,1,0,0,0
18db5633491c1a03,2025,瑞派宠物医院(福华南联分院),A_MEDICAL,high,医疗保健服务,动物医疗场所,宠物诊所,龙岗街道南联社区怡丰路16号远洋新干线(二期)君域花园10栋103,龙岗区,114.25982488763869,22.721150727812766,1.15,SZ500_0104_0074,龙岗区,1,0,0,0,0
18f707989f44a8c4,2025,宠物家(前海荔湾店),A_RETAIL,high,购物服务,专卖店,宠物用品店,恒立心海湾花园2号门旁(荔湾地铁站B口步行390米),南山区,113.88981547910818,22.503426879871142,1.0,SZ500_0029_0024,南山区,0,1,0,0,0
18fdff3dd2ecae44,2025,佳佳宠物店猫舍犬舍狗舍狗市宠物基地萌宠直售宠物市场,A_RETAIL|B_LEISURE,high,虚拟数据,虚拟店铺,虚拟店铺,坂田街道大发埔社区吉华路698号嘉御豪园5栋A2102,龙岗区,114.05268742328684,22.638771493276625,1.0,SZ500_0062_0055,龙华区,0,1,0,0,0
19435642f3f87538,2025,汪喵王国宠物基地猫舍狗舍,A_RETAIL,high,购物服务,专卖店,宠物用品店,信义·君御山居,龙岗区,114.06971393805294,22.640154587779573,1.0,SZ500_0066_0055,龙岗区,0,1,0,0,0
1945e46ce8b36118,2025,宠渊阁宠物店,A_RETAIL|B_AQUARIUM,high,购物服务,花鸟鱼虫市场,宠物市场,长坑路西九巷6号(坂田北地铁站A口步行440米),龙岗区,114.05684531142786,22.63430149739804,1.0,SZ500_0063_0054,龙岗区,0,1,0,0,0
1963ab5d1dc4eca6,2025,莘宠宠物店,A_RETAIL,high,购物服务,专卖店,宠物用品店,宝安大道4568号京基智农山海御园3栋120,宝安区,113.85010176768024,22.593651020274105,1.0,SZ500_0021_0044,宝安区,0,1,0,0,0
19aade020f8209c3,2025,澳森宠物(大运店),A_RETAIL,high,购物服务,专卖店,宠物用品店,世贸深港国际中心一期1楼16号商铺,龙岗区,114.20611111785767,22.70696046678725,1.0,SZ500_0093_0071,龙岗区,0,1,0,0,0
19f9adaf07d8bafc,2025,喵轻松(翻身店),A_RETAIL,high,购物服务,专卖店,宠物用品店,兴华一路与翻身路交叉口北20米,宝安区,113.8927212694586,22.561235077803413,1.0,SZ500_0029_0037,宝安区,0,1,0,0,0
1a0aac9a1ed8dc14,2025,宠爱有家宠物(丽沙河路店),A_RETAIL,high,购物服务,专卖店,宠物用品店,石鼓路与打石二路交叉口东南80米,南山区,113.94397126514684,22.57776184084801,1.0,SZ500_0040_0041,南山区,0,1,0,0,0
1a36f1b24e1ba0a2,2025,新龙翔宠物医院.犬猫全科.狂犬免疫点(新桥院),A_MEDICAL,high,医疗保健服务,动物医疗场所,宠物诊所,新桥街道北环路1-9号,宝安区,113.83827689334146,22.736420784599808,1.15,SZ500_0018_0076,宝安区,1,0,0,0,0
1a3941f44d62c7ac,2025,友汪友喵宠物生活馆(东捷运通企业集团大厦店),A_RETAIL,high,购物服务,专卖店,宠物用品店,兴围中十三巷12号东捷运通企业集团大厦F1层,宝安区,113.82449806273684,22.639240537647296,1.0,SZ500_0015_0054,宝安区,0,1,0,0,0
1a3ed97c743a392a,2025,泡泡毛孩PAWPAWPet,A_RETAIL,high,购物服务,专卖店,宠物用品店,公明街道下村社区二排新村4号101,光明区,113.88176662119484,22.793774206093783,1.0,SZ500_0026_0089,光明区,0,1,0,0,0
1a680af73d728ab7,2025,宠友之屋宠物,A_RETAIL,high,购物服务,专卖店,宠物用品店,黄金南路与黄金北路交叉口东南60米,龙岗区,114.14002225543112,22.615724161103504,1.0,SZ500_0080_0050,龙岗区,0,1,0,0,0
1ae253cad960307c,2025,索菲宠物诊所,A_MEDICAL,high,医疗保健服务,动物医疗场所,宠物诊所,新沙路268-2号(沙井地铁站C口步行380米),宝安区,113.8210178334143,22.7304240210586,1.15,SZ500_0014_0074,宝安区,1,0,0,0,0
1af7025b330c7b61,2025,花姐宠物店,A_RETAIL,high,购物服务,专卖店,宠物用品店,华荣路421-423号,龙华区,113.9886367574757,22.6847632133046,1.0,SZ500_0049_0065,龙华区,0,1,0,0,0
1b09bddde6ae80c7,2025,瑞鹏宠物医院龙华中心医院·24小时(景龙店),A_MEDICAL,high,医疗保健服务,动物医疗场所,宠物诊所,东环一路与建设路交汇处南国丽园2栋3号,龙华区,114.02554070886978,22.65600426498334,1.15,SZ500_0056_0059,龙华区,1,0,0,0,0
1b1be81f771e633e,2025,联合宠物医院( 海岸城分院),A_MEDICAL,high,医疗保健服务,动物医疗场所,宠物诊所,海德一道223号海岸明珠A区裙楼01层14号15号,南山区,113.92720388810405,22.51850427388697,1.15,SZ500_0037_0028,南山区,1,0,0,0,0
1b3ca55efedade39,2025,纬济·爱心宠物医院,A_MEDICAL,high,医疗保健服务,动物医疗场所,宠物诊所,上南大街与广深公路辅路交叉口东20米,宝安区,113.83535289236144,22.72365401949649,1.15,SZ500_0017_0073,宝安区,1,0,0,0,0
1b61fdd9bce77fae,2025,晴天宠物(桐林城市广场店),A_RETAIL,high,购物服务,专卖店,宠物用品店,桐林城市广场A座正门旁,福田区,114.07336278764272,22.53484143073712,1.0,SZ500_0067_0032,福田区,0,1,0,0,0
1b7410526085f118,2025,派多格宠物(青创园店),A_RETAIL,high,购物服务,专卖店,宠物用品店,建设东路18号青年创业园建行楼1楼派多格宠物,龙华区,114.03556795036953,22.66313316897924,1.0,SZ500_0058_0060,龙华区,0,1,0,0,0
1b75bc62ece87944,2025,胖虎宠物用品店,A_RETAIL,high,购物服务,专卖店,宠物用品店,和磡村球场西一巷5-12,龙岗区,114.0571964601139,22.62553843012522,1.0,SZ500_0063_0052,龙岗区,0,1,0,0,0
1b7de4cab440badf,2025,宠物家(深业·新岸线店),A_RETAIL,high,购物服务,专卖店,宠物用品店,宝源路深业新岸线203-27号,宝安区,113.8719681618479,22.56061866482631,1.0,SZ500_0025_0037,宝安区,0,1,0,0,0
1bcfc3e341f2ba64,2025,福懋动物医院重症中心(24H宝体分院),A_MEDICAL,high,医疗保健服务,动物医疗场所,动物医疗场所,新安街道海裕社区N15区幸福海岸花园1栋104号,宝安区,113.87355215425772,22.56120441158061,1.15,SZ500_0026_0037,宝安区,1,0,0,0,0
1bd9262be1b84a81,2025,PetNote宠本本宠物,A_RETAIL,high,购物服务,专卖店,宠物用品店,南山大道与海德二道交叉口东北100米,南山区,113.91888003154229,22.52506190515607,1.0,SZ500_0035_0029,南山区,0,1,0,0,0
1be020c366032e9a,2025,任性狗佬,A_RETAIL,high,购物服务,专卖店,宠物用品店,龙岗大道4038号103,龙岗区,114.19948062556996,22.647055255105453,1.0,SZ500_0092_0057,龙岗区,0,1,0,0,0
1bf3facf924919d8,2025,鑫旺宠物屋(金地名津广场店),A_RETAIL,high,购物服务,专卖店,宠物用品店,裕亨路与渔农村二通道交叉口东南180米,福田区,114.06859156597484,22.51942194848301,1.0,SZ500_0066_0029,福田区,0,1,0,0,0
1c1ba710682d6040,2025,华尔宠宠物店,A_RETAIL,high,购物服务,专卖店,宠物用品店,坂田街道大发埔社区长发西路2号二楼201,龙岗区,114.05514747946326,22.633573747435,1.0,SZ500_0063_0054,龙岗区,0,1,0,0,0
1c75ce69fc29f77b,2025,宠物家(红桂二街23号大院店),A_RETAIL,high,购物服务,专卖店,宠物用品店,红桂路红桂二街23号大院,罗湖区,114.10183775715107,22.55181585745704,1.0,SZ500_0073_0036,福田区,0,1,0,0,0
1c908ca27e662489,2025,深圳爱贝康宠物医院·皮肤专科·复杂内科专科,A_MEDICAL,high,医疗保健服务,动物医疗场所,宠物诊所,金田路1003号御庭园一楼,福田区,114.0599680646698,22.521870789206165,1.15,SZ500_0064_0029,福田区,1,0,0,0,0
1ccc0cc9064d9b88,2025,茸茸传奇宠物俱乐部,A_RETAIL,high,购物服务,专卖店,宠物用品店,协力路与回龙路交叉口西北80米,龙岗区,114.22950468336764,22.73721627348633,1.0,SZ500_0098_0078,龙岗区,0,1,0,0,0
1ce6ae136474b5e2,2025,瑞鹏宠物深圳第一中心医院,A_MEDICAL,high,医疗保健服务,动物医疗场所,宠物诊所,南头街道南新路与桃园路交叉口前海金岸大厦109-112(苏宁电器旁),南山区,113.91367625182566,22.53601669402028,1.15,SZ500_0034_0032,南山区,1,0,0,0,0
1d00750a41b0696f,2025,萌宠星球,A_RETAIL|B_LEISURE,high,购物服务,专卖店,宠物用品店,浪口一路25号滨江爱义尚华大厦,龙华区,114.00489294593474,22.681782840440583,1.0,SZ500_0052_0064,龙华区,0,1,0,0,0
1d2d4aa54a5ef2aa,2025,派多格宠宝(金世界商城店),A_RETAIL,high,购物服务,专卖店,宠物用品店,解放路2003号金世界商城深圳东门步行街店F1层,罗湖区,114.11224467408732,22.548225093815244,1.0,SZ500_0075_0035,罗湖区,0,1,0,0,0
1d4beb3695425206,2025,联合宠物医院(建安分院),A_MEDICAL,high,医疗保健服务,动物医疗场所,宠物诊所,建安二路3号,宝安区,113.8847887799578,22.58079065435728,1.15,SZ500_0028_0041,宝安区,1,0,0,0,0
1d9e2720c7ec6ef8,2025,蔚蓝犬舍宠物店,A_RETAIL,high,公司企业,农林牧渔基地,其它农林牧渔基地,石井街道石井社区横塘路8号101,坪山区,114.38204812173925,22.69985246428729,1.0,SZ500_0130_0070,坪山区,0,1,0,0,0
1db5725f98cac9fe,2025,乔木喵宿-高端猫咪服务,A_RETAIL,high,购物服务,专卖店,宠物用品店,沙井街道步涌社区兴隆路19号103乔木喵宿,宝安区,113.80449411486538,22.76216870772648,1.0,SZ500_0010_0081,宝安区,0,1,0,0,0
1decca1325e6e5d4,2025,邻小虎宠物用品快速超市(沙井店),A_RETAIL,high,购物服务,购物相关场所,购物相关场所,宝安大道8237号-华美居商务中心5楼539,宝安区,113.81892274026548,22.738232818685745,1.0,SZ500_0014_0076,宝安区,0,1,0,0,0
1df9dd4c337e45c4,2025,胖球球Petchocho宠物美容馆(美您公园MEININ PARK店),A_RETAIL|A_GROOMING,high,购物服务,专卖店,宠物用品店,安托山七路3号美您公园MEININ PARKF1层,福田区,114.00744978266192,22.55344595423044,1.0,SZ500_0053_0036,福田区,0,1,1,0,0
1e0c67f80c0b8db3,2025,福懋动物医院(宝体分院),A_MEDICAL,high,医疗保健服务,动物医疗场所,宠物诊所,幸福海岸花园1栋104、105,宝安区,113.87355215425772,22.56120441158061,1.15,SZ500_0026_0037,宝安区,1,0,0,0,0
1e165c654a354a35,2025,TATABANA宠物会所(印力中心店),A_RETAIL,high,购物服务,专卖店,宠物用品店,农林路69号印力中心B1层,福田区,114.00856139798351,22.547232095234435,1.0,SZ500_0053_0035,福田区,0,1,0,0,0
1e4c3cefba98cc81,2025,天使船宠物服务,A_RETAIL,high,购物服务,专卖店,宠物用品店,南湾街道丹竹头社区丹平西二巷1号B栋1层,龙岗区,114.1506993590296,22.629778029566253,1.0,SZ500_0082_0053,龙岗区,0,1,0,0,0
1e5a3885cfd51355,2025,克林叔叔宠物用品集合店(深圳民治店),A_RETAIL,high,购物服务,专卖店,宠物用品店,华美丽苑6栋766,龙华区,114.03709186829984,22.633768240990907,1.0,SZ500_0059_0054,龙华区,0,1,0,0,0
1e6363369491a127,2025,芭比堂动物医院(园岭分院),A_MEDICAL,high,医疗保健服务,动物医疗场所,宠物诊所,红岭中路2031-2号,福田区,114.09922443269971,22.554214387065624,1.15,SZ500_0072_0036,福田区,1,0,0,0,0
1e87fffa294f2bf9,2025,深圳789宠物生活服务馆,A_RETAIL,high,购物服务,专卖店,宠物用品店,布沙路与樟富路交叉口东80米,龙岗区,114.15095138934323,22.608336006116104,1.0,SZ500_0082_0049,龙岗区,0,1,0,0,0
1e9c33d0da22b436,2025,开心水族店,A_RETAIL|B_AQUARIUM,high,购物服务,专卖店,宠物用品店,福田农产品批发市场有限公司水族街1楼04号,福田区,114.03208530891594,22.56667949936013,1.0,SZ500_0058_0039,福田区,0,1,0,0,0
1ee4a6d24fd81ec5,2025,维特(深圳)24小时动物医院,A_MEDICAL,high,医疗保健服务,动物医疗场所,宠物诊所,南山街道南山大道东南侧南园枫叶公寓102A,南山区,113.91606049810052,22.51947010121942,1.15,SZ500_0034_0028,南山区,1,0,0,0,0
1ee84af57b71d5ae,2025,爱康宠物医院,A_MEDICAL,high,医疗保健服务,动物医疗场所,宠物诊所,福永街道白石厦社区石龙头旧村北环路2号-1,宝安区,113.81454806344054,22.678642636772675,1.15,SZ500_0013_0063,宝安区,1,0,0,0,0
1f00fb886255c9d8,2025,深宠医学宠物医院犬猫门诊CT血液透析,A_MEDICAL,high,医疗保健服务,动物医疗场所,宠物诊所,海旺路与圣洁路交叉口东南60米,宝安区,113.886027104987,22.5563119825476,1.15,SZ500_0028_0036,宝安区,1,0,0,0,0
1f10e6ceeecf986d,2025,哈妮宠物用品(光明店),A_RETAIL|B_AQUARIUM,high,购物服务,花鸟鱼虫市场,宠物市场,马田街道新庄社区新围第三工业区7排3栋105门牌6-5,光明区,113.904548935183,22.77291058949004,1.0,SZ500_0031_0084,光明区,0,1,0,0,0
1f785b516ad6852b,2025,派星宠物(红梅苑店),A_RETAIL,high,购物服务,专卖店,宠物用品店,上梅林西横街115号,福田区,114.043715969018,22.56846478727165,1.0,SZ500_0061_0039,福田区,0,1,0,0,0
1f7c98b49a0827cb,2025,维爱猫馆(龙光玖钻南区店),A_RETAIL,high,购物服务,专卖店,宠物用品店,民治街道龙光玖钻南区4A栋1230,龙华区,114.01823577836872,22.62335716966744,1.0,SZ500_0055_0051,龙华区,0,1,0,0,0
1f8e7eba5fff60e1,2025,宠爱星球百货店,A_RETAIL,high,购物服务,专卖店,宠物用品店,华辉路与同胜工业园路交叉口南220米,龙华区,113.97722732075724,22.68258791673504,1.0,SZ500_0046_0064,龙华区,0,1,0,0,0
1f9dc1aecdb16d29,2025,阳光宠物,A_RETAIL,high,购物服务,专卖店,宠物用品店,天源路17号青壳公寓1层(宏发大世界后面),宝安区,113.92397119793225,22.67774978563212,1.0,SZ500_0035_0063,宝安区,0,1,0,0,0
1fdba4f1cb707f87,2025,五州宠物(泰华·阳光海店),A_MEDICAL,high,医疗保健服务,动物医疗场所,宠物诊所,西乡街道劳动社区宝源路泰华阳光海花园1-2号楼A115-A116,宝安区,113.8534191477402,22.5755517833199,1.15,SZ500_0021_0040,宝安区,1,0,0,0,0
1ff2d276e1df0122,2025,宠物家(冠城世家店),A_RETAIL,high,购物服务,专卖店,宠物用品店,兴华二路73-80号,宝安区,113.89991778253618,22.567476204375883,1.0,SZ500_0031_0039,宝安区,0,1,0,0,0
1ff415e3f76c5905,2025,UMIE宠咖,A_RETAIL,high,购物服务,专卖店,宠物用品店,光明街道翠湖社区光明砖厂216号2单元103,光明区,113.94589000205131,22.763002010413818,1.0,SZ500_0040_0082,光明区,0,1,0,0,0
20153b96dabc0112,2025,深圳市罗湖区开心宠物洗澡造型店,A_RETAIL,high,购物服务,专卖店,宠物用品店,人民北路培森大厦一楼11号商铺,罗湖区,114.11507506339596,22.557440183608414,1.0,SZ500_0075_0037,罗湖区,0,1,0,0,0
20a77284d4d2fdac,2025,莎小妞宠物(阳光广场店),A_RETAIL,high,购物服务,专卖店,宠物用品店,龙城街道盛平社区龙平东路381号阳光广场C栋一单元105,龙岗区,114.24854218021974,22.733526053449605,1.0,SZ500_0102_0077,龙岗区,0,1,0,0,0
211e85c164de24a4,2025,啵啵萌宠(中城康桥花园紫郡店),A_RETAIL|B_LEISURE,high,购物服务,专卖店,宠物用品店,康桥紫郡二期38号商铺,龙岗区,114.13702846550524,22.63079321501251,1.0,SZ500_0079_0054,龙岗区,0,1,0,0,0
21420e67f5d0ef41,2025,宠友部落宠物用品屋,A_RETAIL,high,购物服务,专卖店,宠物用品店,龙岗街道南联邱屋街一巷3号,龙岗区,114.25604598751856,22.71868357880796,1.0,SZ500_0103_0074,龙岗区,0,1,0,0,0
21cc84db070d5dc8,2025,瑞鹏宠物医院(新城市花园店),A_MEDICAL,high,医疗保健服务,动物医疗场所,宠物诊所,龙华街道华联社区大浪南路新城市花园2栋大浪南路26号,龙华区,114.01607513206218,22.66722383594608,1.15,SZ500_0054_0061,龙华区,1,0,0,0,0
2221814dc470522e,2025,汪旺宠物诊所,A_MEDICAL,high,医疗保健服务,动物医疗场所,宠物诊所,石厦路88-1号,宝安区,113.82034127336414,22.680207980078656,1.15,SZ500_0014_0063,宝安区,1,0,0,0,0
222bec9c41b516d3,2025,黛茜宠物店(DC Pet),A_RETAIL,high,购物服务,专卖店,宠物用品店,裕安一路3074-44号,宝安区,113.88444045852832,22.562012376951667,1.0,SZ500_0028_0037,宝安区,0,1,0,0,0
223ace7fcafacba0,2025,联合宠物医院·猫狗专科 (固戍分院),A_MEDICAL,high,医疗保健服务,动物医疗场所,宠物诊所,固兴社区瑞尚居1栋AB座1,宝安区,113.8460835783506,22.60877187899553,1.15,SZ500_0020_0048,宝安区,1,0,0,0,0
224193738e59af76,2025,哈妮宠物(海映山庄店),A_RETAIL,high,购物服务,专卖店,宠物用品店,南油华明路1-1海映山庄,南山区,113.9246795400144,22.51013024558404,1.0,SZ500_0036_0026,南山区,0,1,0,0,0
22662b6992e16767,2025,宠物家(麒麟花园店),A_RETAIL,high,购物服务,专卖店,宠物用品店,艺园路(中山公园地铁站A口步行460米),南山区,113.92323460232392,22.548877730851245,1.0,SZ500_0036_0035,南山区,0,1,0,0,0
2266ec85195e6070,2025,卧岛猫咪洗护专门店(星河旗舰店),A_RETAIL,high,购物服务,专卖店,宠物用品店,星河雅宝world二期e栋202(二楼大堂旁),龙华区,114.05235291700266,22.60767544428285,1.0,SZ500_0062_0048,龙华区,0,1,0,0,0
22eae00e2a6d9ade,2025,茜茜芬尼宠物(东部星悦天地店),A_MEDICAL,high,医疗保健服务,动物医疗场所,宠物诊所,南湾街道丹竹头社区龙岗布吉段3036号东部英郡年华假日广场1栋1-59,龙岗区,114.14570644367883,22.62122915173085,1.15,SZ500_0081_0052,龙岗区,1,0,0,0,0
232b6708cd3a9c64,2025,欢喜深圳宠物基地狗场猫舍犬舍,A_RETAIL,high,购物服务,专卖店,宠物用品店,坂田街道杨美社区上段二巷4号,龙华区,114.0463878049597,22.71709027554501,1.0,SZ500_0060_0072,龙华区,0,1,0,0,0
2334690c0428183f,2025,艾尚宠物,A_RETAIL,high,购物服务,专卖店,宠物用品店,松岗街道广深路松岗段114-1号,宝安区,113.84490931934666,22.7680780567764,1.0,SZ500_0019_0083,宝安区,0,1,0,0,0
235f0a158f110126,2025,J·Wawa宠物生活馆(中粮云景广场店),A_RETAIL,high,购物服务,专卖店,宠物用品店,马田街道合水口社区中粮云景广场内二楼商铺3-205,光明区,113.8831616521408,22.780289905894904,1.0,SZ500_0027_0086,光明区,0,1,0,0,0
2375d144c82449c5,2025,米老板宠物超市,A_RETAIL,high,购物服务,专卖店,宠物用品店,郑氏宗祠正门西70米,宝安区,113.87012538613418,22.578649617970456,1.0,SZ500_0025_0041,宝安区,0,1,0,0,0
23c8a4caff6bfae8,2025,瑞派宠物医院(澳洲香蜜湖院),A_MEDICAL,high,医疗保健服务,动物医疗场所,宠物诊所,香蜜湖街道农林路鑫竹苑BC座一层3号铺,福田区,114.01266762614556,22.540685289589547,1.15,SZ500_0054_0033,福田区,1,0,0,0,0
23cbe54a54ad0fbd,2025,三喵宠屋(运河蓝湾店),A_RETAIL,high,购物服务,专卖店,宠物用品店,平南社区银翠路2-9A105,龙岗区,114.26830196827684,22.723814448039672,1.0,SZ500_0106_0075,龙岗区,0,1,0,0,0
23d2dd4bfcf7fd88,2025,集浩大厦联合宠物医院1栋,A_MEDICAL,high,地名地址信息,门牌信息,楼栋号,黄贝街道黄贝岭集浩大厦联合宠物医院1栋,罗湖区,114.13049377385089,22.54951297043559,1.15,SZ500_0078_0036,罗湖区,1,0,0,0,0
23d932572dc719fc,2025,南山区动物检疫申报点,A_MEDICAL,high,医疗保健服务,动物医疗场所,动物医疗场所,学府路265号,南山区,113.90623820053078,22.53069066336411,1.15,SZ500_0032_0030,南山区,1,0,0,0,0
244e154887671d30,2025,BPETS,A_RETAIL,high,购物服务,专卖店,宠物用品店,万象天地北区4楼NL412,南山区,113.95241726989708,22.54573796924327,1.0,SZ500_0042_0034,南山区,0,1,0,0,0
247ae64c2042763d,2025,京东宠物爱玩乐(天勤安盛大厦店),A_RETAIL,high,购物服务,专卖店,宠物用品店,西乡前进二路天勤安盛大厦一楼,宝安区,113.86611037318872,22.6057519137102,1.0,SZ500_0024_0047,宝安区,0,1,0,0,0
2519a4489b512e25,2025,有汕猫馆(猫咖),A_RETAIL|B_LEISURE,high,购物服务,专卖店,宠物用品店,东部英郡假日广场6座30楼20号(正门-星悦天地1楼茶百道旁进),龙岗区,114.1452462769996,22.621886294820964,1.0,SZ500_0081_0052,龙岗区,0,1,0,0,0
25556fe91044a4aa,2025,亚洲宠物医院,A_MEDICAL,high,医疗保健服务,动物医疗场所,宠物诊所,福城街道澳门工业区路30-6尚品雅居8号,龙华区,114.01658545923112,22.751044959736863,1.15,SZ500_0054_0080,龙华区,1,0,0,0,0
25958174e147d249,2025,总裁の日子(美丽365花园店),A_RETAIL,high,购物服务,专卖店,宠物用品店,三联路美丽365花园4号门D1栋A04号商铺,龙华区,114.02538339323954,22.6663144813882,1.0,SZ500_0056_0061,龙华区,0,1,0,0,0
25b106ddfda8d339,2025,富源居三栋一樓诺囍宠物,A_RETAIL,high,购物服务,专卖店,宠物用品店,南湾街道南岭东路6号富源居三栋一楼109,龙岗区,114.1495783308308,22.617237254459333,1.0,SZ500_0082_0051,龙岗区,0,1,0,0,0
25f3268f22b858f4,2025,尚爱宠物,A_RETAIL,high,购物服务,专卖店,宠物用品店,龙华街道山咀头路,龙华区,114.02035350272264,22.658215403991445,1.0,SZ500_0055_0059,龙华区,0,1,0,0,0
25f373f64dca8c61,2025,开心宝贝宠物,A_RETAIL,high,购物服务,专卖店,宠物用品店,桥和路与同富路交叉口东60米,宝安区,113.79276959340218,22.69046978605987,1.0,SZ500_0008_0065,宝安区,0,1,0,0,0
26301802e849b904,2025,囍它宠物店,A_RETAIL,high,购物服务,专卖店,宠物用品店,凤塘大道恒金智谷B2栋113号,宝安区,113.77846481932636,22.703763768098508,1.0,SZ500_0005_0068,宝安区,0,1,0,0,0
2686b5630c8c2084,2025,萌克泰宠物生活馆(光明蓝鲸世界店),A_RETAIL,high,购物服务,专卖店,宠物用品店,光明区光明蓝鲸世界(凤凰城地铁站A口步行320米),光明区,113.9295849466561,22.74897818671223,1.0,SZ500_0036_0079,光明区,0,1,0,0,0
26912d96fb20099f,2025,超元气宠物生活館,A_RETAIL,high,购物服务,专卖店,宠物用品店,花墟道与花园街交叉口西南160米,南山区,113.932926047855,22.600591733811427,1.0,SZ500_0038_0046,南山区,0,1,0,0,0
26a01c14921d7a5d,2025,足迹宠物销售中心(龙岗中心城店),A_RETAIL,high,购物服务,专卖店,宠物用品店,海逸雅居(龙翔大道东)4096号,龙岗区,114.24543778522556,22.719499727912964,1.0,SZ500_0101_0074,龙岗区,0,1,0,0,0
270fb5543c811ff8,2025,深圳巨量萌宠犬舍,A_RETAIL|B_LEISURE,high,购物服务,专卖店,宠物用品店,碧眼旧村35-1号106,光明区,113.94909800226148,22.7553341211331,1.0,SZ500_0040_0080,光明区,0,1,0,0,0
2716927609f572dd,2025,乐奇动物医院(葵涌分院),A_MEDICAL,high,医疗保健服务,动物医疗场所,宠物诊所,大鹏新区葵涌街道三溪社区葵新北路62号招商东岸家园1栋B座108,龙岗区,114.41401173649886,22.637693916521016,1.15,SZ500_0136_0056,龙岗区,1,0,0,0,0
2745e32bdfb0149a,2025,悠悠宠物医院,A_MEDICAL,high,医疗保健服务,动物医疗场所,宠物诊所,梅华路183-28号深华公寓商铺,福田区,114.04426809951556,22.56730065220523,1.15,SZ500_0061_0039,福田区,1,0,0,0,0
278a7ec2c87356bf,2025,联合宠物医院(观澜分院),A_MEDICAL,high,医疗保健服务,动物医疗场所,宠物诊所,观城社区马坜新村1号2号3号4号5号6号7号8号9号10号大和路210号一二楼,龙华区,114.04454791767397,22.70092168536013,1.15,SZ500_0060_0069,龙华区,1,0,0,0,0
27b5f0266bf12666,2025,乐貝宠宠物生活用品超市(锦绣江南店),A_RETAIL,high,购物服务,专卖店,宠物用品店,梅龙大道574号锦绣江南四期,龙华区,114.0273345748301,22.64273901110608,1.0,SZ500_0057_0056,龙华区,0,1,0,0,0
27c25bc6ed011cdd,2025,幺三宠物用品,A_RETAIL,high,购物服务,专卖店,宠物用品店,西丽镇留仙大道1311号众冠花园,南山区,113.95213235426458,22.583052998870627,1.0,SZ500_0042_0042,南山区,0,1,0,0,0
27cc61cd1b883541,2025,狗狗屋宠物(爱地花园二期店),A_RETAIL,high,购物服务,专卖店,宠物用品店,龙平西路159南门爱地花园二期,龙岗区,114.22285360476045,22.731180290184067,1.0,SZ500_0097_0076,龙岗区,0,1,0,0,0
27dc7cd0d268d46f,2025,萌虎猫咖(龙华店),A_RETAIL|B_LEISURE,high,购物服务,专卖店,宠物用品店,景龙中环路424-3(利金城购物广场B1-26),龙华区,114.0153426739158,22.65540552808392,1.0,SZ500_0054_0059,龙华区,0,1,0,0,0
2804254201a26703,2025,爱犬宝宠物诊所,A_MEDICAL,high,医疗保健服务,动物医疗场所,宠物诊所,爱联石岗圩路60号,龙岗区,114.2240918579342,22.696952815553413,1.15,SZ500_0097_0069,龙岗区,1,0,0,0,0
2868afbede108b3d,2025,哈基米宠物用品超市,A_RETAIL,high,购物服务,专卖店,宠物用品店,福永街道怀德社区怀德新村九巷66-2,宝安区,113.81136866614727,22.665621860033564,1.0,SZ500_0012_0060,宝安区,0,1,0,0,0
28769e6a27d64abc,2025,吾宠宠物生活馆,A_RETAIL,high,购物服务,专卖店,宠物用品店,民塘路汇龙湾正门对面(天鸿连锁公寓后面),龙华区,114.02509476296729,22.6244115231112,1.0,SZ500_0056_0052,龙华区,0,1,0,0,0
289ef20e2eda97d7,2025,遇见它宠物生活馆(坪山店),A_RETAIL,high,购物服务,专卖店,宠物用品店,龙田街道竹坑社区奥园翡翠东湾二期花园2栋121,坪山区,114.38710589630936,22.709435240536145,1.0,SZ500_0130_0072,坪山区,0,1,0,0,0
289ffb2f403ae548,2025,宠物家(留仙洞店),A_RETAIL,high,购物服务,专卖店,宠物用品店,西丽街道留仙社区留仙大道北同悦路18号宝能华府CD栋101,南山区,113.94140490101825,22.58477959326485,1.0,SZ500_0039_0043,南山区,0,1,0,0,0
28c037091d73cc40,2025,爱宠有家宠物店,A_RETAIL,high,购物服务,专卖店,宠物用品店,民盛花园A栋1楼,光明区,113.9863457175818,22.742172403218703,1.0,SZ500_0048_0078,光明区,0,1,0,0,0
28ce1d6ec2402eef,2025,宠爱有家宠物(中心路店),A_MEDICAL,high,医疗保健服务,动物医疗场所,动物医疗场所,中心路与上丰路交叉口西160米,宝安区,113.8203489176892,22.71695457281856,1.15,SZ500_0014_0071,宝安区,1,0,0,0,0
28d1c7f2905bec62,2025,唯宠宠物诊所(沙井店),A_MEDICAL,high,医疗保健服务,动物医疗场所,宠物诊所,新沙路151号上星综合大楼101-1,宝安区,113.8295186361594,22.731854665111445,1.15,SZ500_0016_0075,宝安区,1,0,0,0,0
28dfa2dbed4c9dad,2025,超能宠物PawerFor,A_RETAIL,high,购物服务,专卖店,宠物用品店,尚誉·红山里,龙华区,114.01237123843543,22.635509220486053,1.0,SZ500_0054_0054,龙华区,0,1,0,0,0
28f03afdb6c9ad18,2025,乐宠优宠物医院,A_MEDICAL,high,医疗保健服务,动物医疗场所,宠物诊所,华夏路43号怡景园7栋111(工商银行旁两个铺位),光明区,113.93701954401652,22.75744015799235,1.15,SZ500_0038_0081,光明区,1,0,0,0,0
29017a8b3c58cae3,2025,卧岛猫咪洗护专门店(宝安宝体店),A_RETAIL,high,购物服务,专卖店,宠物用品店,宝源南路深业新岸线3号门商铺11-15号卧岛猫咪洗护专门店,宝安区,113.86970954251046,22.56303973572372,1.0,SZ500_0025_0037,宝安区,0,1,0,0,0
297284b3ee91b8ea,2025,懒猫宠物生活馆(德润荣君府店),A_RETAIL,high,购物服务,专卖店,宠物用品店,坂田街道马安堂社区布龙路595号德润荣君府2b栋1S19,龙岗区,114.06357852278116,22.6281353860362,1.0,SZ500_0064_0053,龙岗区,0,1,0,0,0
299efb0d90de7f2f,2025,壹佳宠物猫舍狗舍宠物基地,A_RETAIL,high,购物服务,专卖店,宠物用品店,石岩街道官田西二新村31栋101,宝安区,113.9352437450564,22.685637957021,1.0,SZ500_0038_0065,宝安区,0,1,0,0,0
29b13680b8205b03,2025,圣宠宠物店(深圳灵芝店),A_RETAIL|B_AQUARIUM,high,购物服务,专卖店,宠物用品店,新安街道裕安二路180号全宝小区B栋101商铺,宝安区,113.89822379228468,22.576588032869022,1.0,SZ500_0031_0041,宝安区,0,1,0,0,0
29bdae25e9ee90ff,2025,皮班长宠物用品超市(红山店),A_RETAIL,high,购物服务,专卖店,宠物用品店,民治街道红山社区南源新村26栋26-1,龙华区,114.0244781118743,22.62513411350839,1.0,SZ500_0056_0052,龙华区,0,1,0,0,0
29d7db8fec9aab3b,2025,优佳宠物医院(坪山总院),A_MEDICAL,high,医疗保健服务,动物医疗场所,宠物诊所,坪山街道中山大道威尼斯花园2号楼利金阁13-15号商铺,坪山区,114.33478882774622,22.68868355200116,1.15,SZ500_0120_0067,坪山区,1,0,0,0,0
2a07649d1b4cc056,2025,宝贝康宠物医院,A_MEDICAL,high,医疗保健服务,动物医疗场所,宠物诊所,吉祥中路鸿基花园俪景中心12栋101号,龙岗区,114.23593361095266,22.71459781033631,1.15,SZ500_0099_0073,龙岗区,1,0,0,0,0
2a2305c5c4a47345,2025,Lovelypet宠物生活馆(富通·好旺角一期店),A_RETAIL,high,购物服务,专卖店,宠物用品店,创业一路富通好旺角A1栋08商铺Lovely pet宠物生活馆,宝安区,113.88370646277228,22.56032698631718,1.0,SZ500_0028_0037,宝安区,0,1,0,0,0
2a2ac07f0f46f64a,2025,喵主人宠物生活馆(桦润馨居店),A_RETAIL,high,购物服务,专卖店,宠物用品店,龙华街道建通路37号,龙华区,114.02256350736376,22.6558096270886,1.0,SZ500_0056_0059,龙华区,0,1,0,0,0
2a30d9863de03cd4,2025,瑞鹏宠物医院(坑梓分院),A_MEDICAL,high,医疗保健服务,动物医疗场所,宠物诊所,坑梓街道人民西路45-2凯恩宠物医院,坪山区,114.37273745030926,22.74905176992712,1.15,SZ500_0127_0081,坪山区,1,0,0,0,0
2a4179391aa4500f,2025,宠杏里宠物店(华悦路(西)店),A_RETAIL,high,购物服务,专卖店,宠物用品店,中保富裕新村1栋101,龙华区,113.99122105188924,22.67335716964537,1.0,SZ500_0049_0062,龙华区,0,1,0,0,0
2a66a86a072f4a7f,2025,贝贝宠物诊所(景田店),A_MEDICAL,high,医疗保健服务,动物医疗场所,宠物诊所,莲花西路缔梦园丽梦轩105号(地铁景田f出马路对面),福田区,114.03690530994268,22.555575219526503,1.15,SZ500_0059_0037,福田区,1,0,0,0,0
2a70cf44be117245,2025,大河马宠物医院(龙猫院),A_MEDICAL,high,医疗保健服务,动物医疗场所,宠物诊所,龙华街道景龙社区东环一路246号乐景花园1栋107-109-111,龙华区,114.0230791712391,22.658085694794,1.15,SZ500_0056_0059,龙华区,1,0,0,0,0
2ab42aa481df8ab6,2025,妙想宠物会所(鼎胜金域世家豪园店),A_RETAIL,high,购物服务,专卖店,宠物用品店,石鼓路3009号金域世家8-9号商铺,南山区,113.9425395378135,22.58533953234167,1.0,SZ500_0040_0043,南山区,0,1,0,0,0
2ad449e2511a2ad3,2025,星际宠物诊所,A_MEDICAL,high,医疗保健服务,动物医疗场所,宠物诊所,松岗街道红星社区星际家园2号商铺106,宝安区,113.82859494206336,22.76586848379116,1.15,SZ500_0015_0082,宝安区,1,0,0,0,0
2b6229b0501a0b39,2025,胖胖宠物(奥林华府店),A_RETAIL,high,购物服务,专卖店,宠物用品店,龙城街道爱联社区如意路141号奥林华府,龙岗区,114.21462100537144,22.707272844708857,1.0,SZ500_0095_0071,龙岗区,0,1,0,0,0
2b758a92615dceab,2025,爱心宠物医院,A_MEDICAL,high,医疗保健服务,动物医疗场所,宠物诊所,广深路沙井段118号,宝安区,113.83582608247892,22.72488955585817,1.15,SZ500_0017_0073,宝安区,1,0,0,0,0
2b9e8806b770a616,2025,深圳市安达宠物用品有限公司,A_RETAIL,high,公司企业,公司,公司,牛湖社区石马径路12号美胜达手工皮具二楼,龙华区,114.0833814584018,22.71861591547864,1.0,SZ500_0068_0073,龙华区,0,1,0,0,0
2bb68d5cf69ef17a,2025,深圳市金灿宠物用品有限公司,A_RETAIL,high,公司企业,公司,公司,松岗街道东方社区田洋二路1号C1001,宝安区,113.8648070976954,22.75423835247827,1.0,SZ500_0023_0080,宝安区,0,1,0,0,0
2c0b30d5e53262b9,2025,哇噻喜宠,A_RETAIL,high,购物服务,专卖店,宠物用品店,航城街道天福华府A区A2栋105-106铺,宝安区,113.83574155306606,22.63632732373359,1.0,SZ500_0017_0054,宝安区,0,1,0,0,0
2c0d838ea4e5d019,2025,喜白白宠物店,A_RETAIL,high,购物服务,专卖店,宠物用品店,新安街道西城品阁101,宝安区,113.8885950920468,22.5798661777291,1.0,SZ500_0029_0041,宝安区,0,1,0,0,0
2c1787e8444041e2,2025,宠物之家宠物生活馆(凤凰六分店),A_RETAIL,high,购物服务,专卖店,宠物用品店,福永街道凤凰社区凤凰山大道107-8,南山区,113.94345110779209,22.55887669849326,1.0,SZ500_0040_0037,南山区,0,1,0,0,0
2c17ff703988766e,2025,联合宠物医院(动物园分院),A_MEDICAL,high,医疗保健服务,动物医疗场所,宠物诊所,丽山路16号西湖林语名苑1栋108,南山区,113.95991615975524,22.59615567146111,1.15,SZ500_0043_0045,南山区,1,0,0,0,0
2c7d16f22f29fc24,2025,宠物家(白石龙店),A_RETAIL,high,购物服务,专卖店,宠物用品店,龙光·玖龙玺西1门旁(白石龙地铁站B2口步行230米),龙华区,114.03592912945344,22.603245162937345,1.0,SZ500_0059_0047,龙华区,0,1,0,0,0
2c840bc6999c6074,2025,随心宠物·精品猫舍(罗湖店),A_RETAIL,high,购物服务,专卖店,宠物用品店,国际商业大厦北座1107(国贸地铁站E口20米),罗湖区,114.11279082168866,22.542020863976973,1.0,SZ500_0075_0034,罗湖区,0,1,0,0,0
2cbd39e3d3c33c43,2025,联合宠物医院(龙华店),A_MEDICAL,high,医疗保健服务,动物医疗场所,宠物诊所,和平路196号,龙华区,114.02330458266056,22.65917582954143,1.15,SZ500_0056_0059,龙华区,1,0,0,0,0
2cc5bf18140e81a7,2025,拾里陶画·陶艺·银饰·手作(坂田店),A_MEDICAL,high,体育休闲服务,休闲场所,休闲场所,坂田街道五和大道3390号五和智荟园2层203室(爱特宠物医院左侧大堂电梯楼上),龙岗区,114.0559741981684,22.637153553767188,1.15,SZ500_0063_0055,龙岗区,1,0,0,0,0
2cc96d48fb3f7a00,2025,瑞鹏宠物医院24H·骨科·内窥镜·猫科(后海中心),A_MEDICAL,high,医疗保健服务,动物医疗场所,宠物诊所,后海大道后海名苑居123铺,南山区,113.92720027982794,22.512323472743017,1.15,SZ500_0037_0026,南山区,1,0,0,0,0
2ce32912dc65dec8,2025,大脸猫宠物(喜荟城店),A_RETAIL,high,购物服务,专卖店,宠物用品店,东湖街道东乐社区太安路47号联江大厦1号楼49号之一,罗湖区,114.13594386620426,22.57217808340439,1.0,SZ500_0079_0041,罗湖区,0,1,0,0,0
2d85b0363896c51b,2025,祥兽24h宠物医院·骨科·犬猫全科(海月店),A_MEDICAL,high,医疗保健服务,动物医疗场所,宠物诊所,工业七路与后海大道交叉口东北60米,南山区,113.92939493812553,22.498397132504685,1.15,SZ500_0037_0023,南山区,1,0,0,0,0
2d86295522aa827f,2025,坚果宠物(草埔店),A_RETAIL,high,购物服务,专卖店,宠物用品店,金稻田路鸿翠苑A栋110商铺,罗湖区,114.11628202422406,22.585703083274574,1.0,SZ500_0075_0044,罗湖区,0,1,0,0,0
2dd400f4539ef165,2025,景瑞宠物医院(新生店),A_MEDICAL,high,医疗保健服务,动物医疗场所,宠物诊所,龙岗街道新城路85号景瑞宠物医院,龙岗区,114.26806834189776,22.7498739011804,1.15,SZ500_0106_0081,龙岗区,1,0,0,0,0
2de659613eef59a5,2025,瑞派宠物医院(博爱堂名城院),A_MEDICAL,high,医疗保健服务,动物医疗场所,宠物诊所,布吉街道荣华路信义假日名城博雅园4号楼S65-66号,龙岗区,114.11850978882342,22.59668741439642,1.15,SZ500_0076_0046,龙岗区,1,0,0,0,0
2df2f1723509a7de,2025,哆咪宠物用品,A_RETAIL,high,购物服务,专卖店,宠物用品店,西田股份合作公司南门北270米,光明区,113.8953236131632,22.80409217250165,1.0,SZ500_0029_0091,光明区,0,1,0,0,0
2e4aae0447457066,2025,像素喵屋,A_RETAIL,high,购物服务,专卖店,宠物用品店,创业一路与翻身路交叉口东60米,宝安区,113.89021015365884,22.5637917258796,1.0,SZ500_0029_0038,宝安区,0,1,0,0,0
2e593d16aa0563bb,2025,柚西宠物·猫舍犬舍宠物庄园,A_RETAIL,high,购物服务,专卖店,宠物用品店,逸景四路与逸湖六街交叉口北40米,南山区,113.9412472322526,22.519168093387805,1.0,SZ500_0040_0028,南山区,0,1,0,0,0
2ea484568868c5e3,2025,深圳市野生动物救护中心,A_MEDICAL,high,医疗保健服务,动物医疗场所,宠物诊所,凤凰路21号,龙岗区,114.20918310579748,22.608604548513668,1.15,SZ500_0094_0049,龙岗区,1,0,0,0,0
2ed410066f07a6c2,2025,贝诺宠物医院(横岗分院),A_MEDICAL,high,医疗保健服务,动物医疗场所,宠物诊所,横岗街道湛宝路新景苑F栋1-2,龙岗区,114.19087627562998,22.6473487001075,1.15,SZ500_0090_0058,龙岗区,1,0,0,0,0
2f221e079bcfea57,2025,小卡家宠物工作室(盛荟MIX Mall店),A_RETAIL,high,购物服务,专卖店,宠物用品店,南湾街道布澜路182号,龙岗区,114.11517189878424,22.654124918617853,1.0,SZ500_0075_0059,龙岗区,0,1,0,0,0
2f318ae93e0cc3fb,2025,宠物家(澳城花园店),A_RETAIL,high,购物服务,专卖店,宠物用品店,澳城花园北区(湾厦地铁站A口步行380米),南山区,113.93396002675566,22.49299209868468,1.0,SZ500_0038_0022,南山区,0,1,0,0,0
2f31b8b8c3a0cf04,2025,宠物家(弘雅花园店),A_RETAIL,high,购物服务,专卖店,宠物用品店,弘雅花园二期3栋C-06号,宝安区,113.88778537022328,22.574417324087,1.0,SZ500_0028_0040,宝安区,0,1,0,0,0
2f3837a4cdf9f9ec,2025,阿柴喵喵屋,A_RETAIL,high,购物服务,专卖店,宠物用品店,平湖街道禾花社区华南大道一号华南国际五金化工塑料物流区二期4号广场B1011,龙岗区,114.12636743866614,22.67562342166146,1.0,SZ500_0077_0063,龙岗区,0,1,0,0,0
2f99652f93455092,2025,乐善宠物善终服务中心(龙岗店),A_MEDICAL,high,医疗保健服务,动物医疗场所,宠物诊所,三联社区龙景二区六巷14号101,龙岗区,114.10901730849083,22.6285232274738,1.15,SZ500_0074_0053,龙岗区,1,0,0,0,0
2fa02433ffcecbc2,2025,瑞鹏宠物医院(大鹏分院),A_MEDICAL,high,医疗保健服务,动物医疗场所,宠物诊所,迎宾路56-14铺,龙岗区,114.46990414526624,22.59784489460906,1.15,SZ500_0148_0048,龙岗区,1,0,0,0,0
2fdb8169e01b3792,2025,喜萌宠星球(潜龙华城C区店),A_RETAIL|B_LEISURE,high,购物服务,专卖店,宠物用品店,潜龙鑫茂花园C区西北门东北70米,龙华区,114.0366760912596,22.612030966392226,1.0,SZ500_0059_0049,龙华区,0,1,0,0,0
301c51eda93d0f25,2025,酷贝熊萌宠乐园(星河COCO Park龙岗店),A_RETAIL|B_LEISURE,high,购物服务,专卖店,宠物用品店,爱南路666号星河COCO Park(龙岗店)L3层,龙岗区,114.22278186881002,22.693777367337624,1.0,SZ500_0097_0068,龙岗区,0,1,0,0,0
303479af3c61a9ab,2025,宠未来动物医院(南山粤海分院),A_MEDICAL,high,医疗保健服务,动物医疗场所,宠物诊所,后海大道2253-13,南山区,113.92716433659196,22.511710529985045,1.15,SZ500_0037_0026,南山区,1,0,0,0,0
308e69651cf5e925,2025,躺平宠物公司,A_RETAIL,high,购物服务,专卖店,宠物用品店,星河传奇二期腾龙路154号躺平宠物公司,龙华区,114.01220573996316,22.634067977598843,1.0,SZ500_0054_0054,龙华区,0,1,0,0,0
30ac24bc0ac7c324,2025,诺念动物医院,A_MEDICAL,high,医疗保健服务,动物医疗场所,宠物诊所,民治大道113号,龙华区,114.0395196416029,22.61236294503692,1.15,SZ500_0059_0049,龙华区,1,0,0,0,0
30f236de0ce59562,2025,宠物家园(深圳南山区),A_RETAIL,high,购物服务,专卖店,宠物用品店,后海大道名苑居南座116号,南山区,113.92718730831668,22.511975496890443,1.0,SZ500_0037_0026,南山区,0,1,0,0,0
316d0ab0518c90a3,2025,窝里哼宠物店(信义嘉御山店),A_RETAIL,high,购物服务,购物相关场所,购物相关场所,龙华街道油松社区百利路3-7,龙岗区,114.0513502495105,22.639700973738897,1.0,SZ500_0062_0055,龙华区,0,1,0,0,0
316d55d5889f27de,2025,薇橙宠物(塘坊花园店),A_RETAIL,high,购物服务,专卖店,宠物用品店,新安街道上川社区35区上川路A4栋147-1,宝安区,113.89399642823048,22.58076350263177,1.0,SZ500_0030_0041,宝安区,0,1,0,0,0
317082e44bdb31c6,2025,八克宠物铺,A_RETAIL,high,购物服务,专卖店,宠物用品店,京南路龙珠社区龙威花园3栋底商A42,龙岗区,114.1176079269417,22.60326774628592,1.0,SZ500_0076_0047,龙岗区,0,1,0,0,0
317519fe0433e451,2025,罐罐宠物生活馆,A_RETAIL,high,购物服务,专卖店,宠物用品店,大万路5号(坪环地铁站A1口步行490米),坪山区,114.33775850851308,22.686563480825388,1.0,SZ500_0120_0067,坪山区,0,1,0,0,0
3187c1e50ec644cb,2025,乐宠家族(洪涛大厦店),A_RETAIL,high,购物服务,专卖店,宠物用品店,宝安南路洪涛大厦一楼3003-2,罗湖区,114.10350790230451,22.55803066707849,1.0,SZ500_0073_0037,福田区,0,1,0,0,0
319faf648e22d1f3,2025,旺财宠物用品店,A_RETAIL,high,购物服务,专卖店,宠物用品店,东门街道文锦中路1047号联兴大厦北座101室,罗湖区,114.12526141799088,22.55190473198931,1.0,SZ500_0077_0036,罗湖区,0,1,0,0,0
31adec730a8ed344,2025,黑虎宠物,A_RETAIL,high,购物服务,专卖店,宠物用品店,工业路与俊龙路交叉口东南120米,龙华区,114.04221100510956,22.63908494336148,1.0,SZ500_0060_0055,龙华区,0,1,0,0,0
31c36b67cf747647,2025,四只小爪宠物店,A_RETAIL,high,购物服务,专卖店,宠物用品店,龙华街道油松社区水斗老围综合楼201,龙华区,114.04731946893352,22.63801069433857,1.0,SZ500_0061_0055,龙华区,0,1,0,0,0
320fa6382690db65,2025,漫宠宠物·猫舍犬舍购宠直营基地(1970科技小镇店),A_RETAIL,high,购物服务,专卖店,宠物用品店,民治街道民治社区1970科技园,龙华区,114.04124287859476,22.62158234018317,1.0,SZ500_0060_0051,龙华区,0,1,0,0,0
3268a4c4b0dc0846,2025,吞金兽·猫舍狗舍·宠物基地,A_RETAIL,high,购物服务,专卖店,宠物用品店,观澜街道大富社区平安路60号康淮工业园1号厂房,龙华区,114.03726610598208,22.747643685325947,1.0,SZ500_0058_0079,龙华区,0,1,0,0,0
328047ed3af27df3,2025,捣蛋宠宠物用品超市(装饰大厦店),A_RETAIL,high,购物服务,专卖店,宠物用品店,八卦一路装饰大厦东座6楼617,福田区,114.09773894887356,22.56024184011668,1.0,SZ500_0072_0038,福田区,0,1,0,0,0
32a5360300f23cba,2025,初心宠物生活馆,A_RETAIL,high,购物服务,专卖店,宠物用品店,西侧区间路与瑞宁路交叉口北120米,宝安区,113.82218373498102,22.7338412166651,1.0,SZ500_0014_0075,宝安区,0,1,0,0,0
32b6158e8d53d23f,2025,猫掌柜宠物店,A_RETAIL,high,购物服务,专卖店,宠物用品店,龙华街道锦绣新村腾龙花园16-1,龙华区,114.0203849571166,22.66548874284772,1.0,SZ500_0055_0061,龙华区,0,1,0,0,0
32cf86292577b4da,2025,smoothpet斯慕宠物,A_RETAIL,high,购物服务,专卖店,宠物用品店,大浪街道恒大时尚慧谷6栋008号附1号,龙华区,113.97291327933604,22.67958561209374,1.0,SZ500_0045_0064,宝安区,0,1,0,0,0
3368d3fe448583b5,2025,宠物达人猫舍犬舍宠物基地,A_RETAIL,high,购物服务,专卖店,宠物用品店,坂田街道岗头社区中心四巷20号,龙岗区,114.11018112973856,22.62269980340439,1.0,SZ500_0074_0052,龙岗区,0,1,0,0,0
3376e60deed969a6,2025,爪小宅宠物馆,A_RETAIL,high,购物服务,专卖店,宠物用品店,龙胜路与宇丰一路交叉口东80米,龙华区,114.01428785445968,22.645985544325764,1.0,SZ500_0054_0056,龙华区,0,1,0,0,0
337db3b14ef8b9a6,2025,洋洋动物诊所,A_MEDICAL,high,购物服务,购物相关场所,购物相关场所,松岗燕川燕罗公路40号,宝安区,113.85364336147212,22.79942147050276,1.15,SZ500_0020_0090,宝安区,1,0,0,0,0
33b3f3a272c504e2,2025,欢腾宠物店,A_RETAIL,high,购物服务,专卖店,宠物用品店,嘉宾路4055号城市天地广场105,罗湖区,114.10871266827938,22.54073077659318,1.0,SZ500_0074_0034,罗湖区,0,1,0,0,0
33e548c3d11eb63a,2025,喜兜兜宠屋,A_RETAIL,high,购物服务,专卖店,宠物用品店,莲花路1110号雨田路雨田村1110-10喜兜兜宠屋,福田区,114.04967867758776,22.563404307753107,1.0,SZ500_0062_0038,福田区,0,1,0,0,0
341a1799506e179d,2025,萌宠屋(新澜雅苑店),A_RETAIL|B_LEISURE,high,购物服务,专卖店,宠物用品店,观澜街道新澜社区大东门街33号新澜雅苑A101,龙华区,114.05145763164391,22.723288905092687,1.0,SZ500_0061_0074,龙华区,0,1,0,0,0
3445f4833f904e20,2025,多比宠物·猫舍犬舍宠物基地,A_RETAIL,high,购物服务,专卖店,宠物用品店,大鹏建设路3号岭澳花园,龙岗区,114.47331768338212,22.59096900189249,1.0,SZ500_0149_0046,龙岗区,0,1,0,0,0
34556d171b42df57,2025,瑞鹏宠物医院(中油分院),A_MEDICAL,high,医疗保健服务,动物医疗场所,宠物诊所,南山街道南山大道东创业路北南海城中心7栋101A,南山区,113.9178603438432,22.521463809522057,1.15,SZ500_0035_0028,南山区,1,0,0,0,0
3466a7f8fa8fcd60,2025,萌宠宠物,A_RETAIL|B_LEISURE,high,购物服务,专卖店,宠物用品店,新安街道海乐社区41区8栋安乐三街62号,宝安区,113.89469638753012,22.56139875470462,1.0,SZ500_0030_0037,宝安区,0,1,0,0,0
34690e4bb05934ed,2025,阿尔法宠物生活馆(坪地店),A_RETAIL,high,购物服务,专卖店,宠物用品店,君胜熙珑山花园-南门1号停车场出入口旁5A栋商铺238号,龙岗区,114.2821005748967,22.753198977967187,1.0,SZ500_0109_0081,龙岗区,0,1,0,0,0
349f4004867b848b,2025,雪宠屋(凯丰花园2期店),A_RETAIL,high,购物服务,专卖店,宠物用品店,凯丰花园二期118铺越华路25号,福田区,114.06012678268812,22.569652099033853,1.0,SZ500_0064_0040,福田区,0,1,0,0,0
34f3211ed4c62183,2025,一家宠物店,A_RETAIL,high,购物服务,专卖店,宠物用品店,坂田杨马市场11栋102号,龙岗区,114.0660091605364,22.632048091348302,1.0,SZ500_0065_0054,龙岗区,0,1,0,0,0
350c6f82c7d5b010,2025,深圳萌千喜·猫舍犬舍·批发基地(只卖猫狗活体),A_RETAIL,high,购物服务,专卖店,宠物用品店,深港花卉中心F区F-06,南山区,113.93444786415192,22.599935674838893,1.0,SZ500_0038_0046,南山区,0,1,0,0,0
35d052d0c6a24d1f,2025,泰康宠物医院,A_MEDICAL,high,医疗保健服务,动物医疗场所,宠物诊所,宝石东路416号,宝安区,113.93726603616469,22.683208464788773,1.15,SZ500_0038_0064,宝安区,1,0,0,0,0
35d5d62024f19101,2025,屋虎猫馆(宝安大仟里店),A_RETAIL,high,购物服务,专卖店,宠物用品店,新湖路与海城路交汇处宝安大仟里B1-B182,宝安区,113.86716470895792,22.57256254612211,1.0,SZ500_0024_0040,宝安区,0,1,0,0,0
35d62099ceaeece1,2025,皮班长宠物用品超市(光明玉塘街道店),A_RETAIL,high,购物服务,专卖店,宠物用品店,玉塘街道田寮社区龙新路三巷1号103,光明区,113.90125734095824,22.732549262087936,1.0,SZ500_0030_0075,光明区,0,1,0,0,0
35ec46bb938e32ec,2025,原始部落(深圳)宠物用品有限公司,A_RETAIL,high,购物服务,购物相关场所,购物相关场所,横岗镇园山街道安兴路22号鸿浩概念空间一楼正对门,龙岗区,114.2181722727202,22.63729795293448,1.0,SZ500_0096_0055,龙岗区,0,1,0,0,0
363e6773444587c2,2025,鹏城爱心宠物医院,A_MEDICAL,high,医疗保健服务,动物医疗场所,宠物诊所,龙岗街道新生社区富城路77号桑泰龙域府商铺106,龙岗区,114.26589023293415,22.75458983280141,1.15,SZ500_0105_0082,龙岗区,1,0,0,0,0
364324d37b7234bd,2025,好好宠物医院(清湖分院),A_MEDICAL,high,医疗保健服务,动物医疗场所,宠物诊所,龙华街道清泉路13-1(清湖地铁站D口步行390米),龙华区,114.0315900820641,22.663141415616536,1.15,SZ500_0058_0060,龙华区,1,0,0,0,0
36443165ecb355cd,2025,联合宠物医院(西乡分院),A_MEDICAL,high,医疗保健服务,动物医疗场所,宠物诊所,海湾明珠花园6栋111-112号,宝安区,113.85494977448845,22.5770271120218,1.15,SZ500_0022_0041,宝安区,1,0,0,0,0
3650ba80c77bb936,2025,Pet era·宠物时代(信义领御店),A_RETAIL,high,购物服务,专卖店,宠物用品店,新安街道兴东社区信义领御3栋121商铺,宝安区,113.91298029542187,22.58107507134625,1.0,SZ500_0034_0042,宝安区,0,1,0,0,0
367fd0284f2f095e,2025,信德宠物医院(瑞派红岭院),A_MEDICAL,high,医疗保健服务,动物医疗场所,宠物诊所,南园街道东园社区御河堤花园A BC座埔尾路商铺9号,福田区,114.09838867040564,22.540963344594907,1.15,SZ500_0072_0034,福田区,1,0,0,0,0
369aad4bdf9655fa,2025,柠萌淘宠物用品超市(龙华店),A_RETAIL,high,购物服务,专卖店,宠物用品店,民治街道上芬社区西头新村14栋104号,龙华区,114.01427801343377,22.64389998278228,1.0,SZ500_0054_0056,龙华区,0,1,0,0,0
36be3871b7605498,2025,意深宠物(龙禧雅苑店),A_RETAIL,high,购物服务,专卖店,宠物用品店,珑禧雅苑意深宠物A006,龙岗区,114.24107840192973,22.74295883702928,1.0,SZ500_0100_0079,龙岗区,0,1,0,0,0
36c9fcc5d1ab886c,2025,爱因斯宠物猫狗专卖宠物基地,A_RETAIL,high,购物服务,专卖店,宠物用品店,清水河街道金碧路星湖花园8栋B楼108,罗湖区,114.09532574187536,22.57030103037972,1.0,SZ500_0071_0040,罗湖区,0,1,0,0,0
36cb117fe475703f,2025,爱心宠物,A_RETAIL,high,购物服务,专卖店,宠物用品店,厦村东坊北5巷1号底楼,龙岗区,114.16017820312814,22.61317274548783,1.0,SZ500_0084_0050,龙岗区,0,1,0,0,0
36dd73b179e6c83f,2025,宠识贝宠物医院,A_MEDICAL,high,医疗保健服务,动物医疗场所,宠物诊所,松园西街15-5号,罗湖区,114.1031208063548,22.55381693843253,1.15,SZ500_0073_0036,福田区,1,0,0,0,0
36e357fa87874b4e,2025,萌星宠物店,A_RETAIL,high,购物服务,专卖店,宠物用品店,沙湖社区同裕路77-1号,坪山区,114.31744871318892,22.67631942111377,1.0,SZ500_0116_0064,坪山区,0,1,0,0,0
371d7330dce7cb38,2025,瑞派宠物医院(康德沙头角店),A_MEDICAL,high,医疗保健服务,动物医疗场所,宠物诊所,沙盐路3048-14,盐田区,114.22536204625716,22.553384580894868,1.15,SZ500_0098_0037,盐田区,1,0,0,0,0
372bcc1863a01f7c,2025,易乐宠宠物用品超市(南山店),A_RETAIL,high,购物服务,专卖店,宠物用品店,前海路2008号(大新地铁站C2口步行480米),南山区,113.91072488760594,22.53180828893196,1.0,SZ500_0033_0031,南山区,0,1,0,0,0
374eaa9ad791e441,2025,私宠·宠物馆,A_RETAIL,high,购物服务,专卖店,宠物用品店,龙岗大道辅路与向东路交叉口南60米,龙岗区,114.27688067111964,22.73457516948659,1.0,SZ500_0108_0077,龙岗区,0,1,0,0,0
3762cfff0b0e96e9,2025,平南宠物医院,A_MEDICAL,high,医疗保健服务,动物医疗场所,宠物诊所,平南路27号,龙岗区,114.26553884820952,22.72941261201094,1.15,SZ500_0105_0076,龙岗区,1,0,0,0,0
3799eac070a5fad2,2025,喵万宠南山店,A_RETAIL,high,购物服务,专卖店,宠物用品店,阳光花地苑D118商铺,南山区,113.909031027038,22.52087239496473,1.0,SZ500_0033_0028,南山区,0,1,0,0,0
37b5d2a788189251,2025,甜宠宠物生活馆,A_RETAIL,high,购物服务,专卖店,宠物用品店,坪洲地铁站C口步行450米,宝安区,113.86193638543506,22.57211937155168,1.0,SZ500_0023_0039,宝安区,0,1,0,0,0
37c14da903e9575b,2025,爱尚萌宠屋宠物店,A_RETAIL|B_LEISURE,high,购物服务,专卖店,宠物用品店,龙平路287号(龙园地铁站D口步行360米),龙岗区,114.25889484246002,22.734356275008885,1.0,SZ500_0104_0077,龙岗区,0,1,0,0,0
37d133cb60e3d685,2025,亲邻萌宠(高发西岸店),A_RETAIL|B_LEISURE,high,购物服务,专卖店,宠物用品店,新安街道创业路第5大道高发西岸花园一期3栋302,宝安区,113.87365751213068,22.558690755076743,1.0,SZ500_0026_0037,宝安区,0,1,0,0,0
37f9fc8f239101d4,2025,联合宠物医院(福海分院),A_MEDICAL,high,医疗保健服务,动物医疗场所,宠物诊所,桥头社区新村路72号101,宝安区,113.80382222913484,22.68899934465164,1.15,SZ500_0011_0065,宝安区,1,0,0,0,0
381635a13ffc409c,2025,芸汐宠物工作室,A_RETAIL,high,购物服务,专卖店,宠物用品店,莲塘坳下村35-2-101芸汐宠物工作室,罗湖区,114.16312300520272,22.56814904468141,1.0,SZ500_0085_0040,罗湖区,0,1,0,0,0
3822de9a8b7dac81,2025,jiojio宠物生活馆(金地龙城中央1期店),A_RETAIL,high,购物服务,专卖店,宠物用品店,龙岗街道南联社区金地凯旋广场1栋103号,龙岗区,114.24517990486936,22.714347106106445,1.0,SZ500_0101_0073,龙岗区,0,1,0,0,0
3853585d1c90f310,2025,墨墨宠物工作室(下沙村四坊店),A_RETAIL,high,购物服务,专卖店,宠物用品店,下沙村四坊1号104室,福田区,114.02101545909316,22.526674752400428,1.0,SZ500_0056_0030,福田区,0,1,0,0,0
38662f1c6fb4586e,2025,招财喵宠物店,A_RETAIL,high,购物服务,专卖店,宠物用品店,鹤洲东区九巷2号2-3,宝安区,113.85651725020855,22.62849016845339,1.0,SZ500_0022_0052,宝安区,0,1,0,0,0
386818c189e77741,2025,旺旺家宠物店(高嘉花园店),A_MEDICAL|A_RETAIL,high,医疗保健服务,动物医疗场所,宠物诊所,春风路2002号高嘉花园(文锦地铁站D口步行220米),罗湖区,114.12469773929838,22.54630855971056,1.15,SZ500_0077_0035,罗湖区,1,1,0,0,0
38bb1e9b07341df7,2025,嘀嗒宠物,A_RETAIL,high,购物服务,专卖店,宠物用品店,聚升二路与东连路交叉口西南120米,坪山区,114.33078097518052,22.703113500918267,1.0,SZ500_0119_0070,坪山区,0,1,0,0,0
38d00c8a2b257587,2025,鸿源宠物医院(松岗分院),A_MEDICAL,high,医疗保健服务,动物医疗场所,宠物诊所,松岗街道金开路1号二六大厦109,宝安区,113.84745406539425,22.765142498398088,1.15,SZ500_0019_0082,宝安区,1,0,0,0,0
38e66fa528969854,2025,奇思宠物(华侨店),A_RETAIL,high,购物服务,专卖店,宠物用品店,深南大道辅路与威尼斯东街交叉口东南140米,南山区,113.97356290334989,22.53753527164833,1.0,SZ500_0046_0032,南山区,0,1,0,0,0
38f5e5d344d691de,2025,U米宠物,A_RETAIL,high,购物服务,专卖店,宠物用品店,九围新村七区304-1102,宝安区,113.8557853481065,22.64655162244328,1.0,SZ500_0022_0056,宝安区,0,1,0,0,0
390546ff673548d5,2025,瑞详宠物·宠物殡葬善后服务,A_MEDICAL,high,医疗保健服务,动物医疗场所,动物医疗场所,龙城街道吉祥社区新桥西三巷14号201,龙岗区,114.23461517705168,22.71188183191972,1.15,SZ500_0099_0072,龙岗区,1,0,0,0,0
3970f2b179930203,2025,米乐乖乖宠物生活馆(KK TIME店),A_RETAIL,high,购物服务,专卖店,宠物用品店,文锦北路2090号KK TIME京基百纳时光商场4楼430号商铺,罗湖区,114.11852433904856,22.57325029874639,1.0,SZ500_0076_0041,罗湖区,0,1,0,0,0
39870034ebdf82ef,2025,阿咪宠物服务店,A_RETAIL,high,购物服务,专卖店,宠物用品店,福华一路与岗厦二路交叉口东120米,福田区,114.06014672392568,22.53952057451369,1.0,SZ500_0064_0033,福田区,0,1,0,0,0
39a4b322146fdfda,2025,奶思喵喵猫舍(南山店),A_RETAIL,high,购物服务,专卖店,宠物用品店,南头街道缤纷商业中心东门一楼街铺a45(东北饺子馆旁边),南山区,113.9243414306519,22.54558088661827,1.0,SZ500_0036_0034,南山区,0,1,0,0,0
39d05a62b89e489f,2025,猫博士宠物医院,A_MEDICAL,high,医疗保健服务,动物医疗场所,宠物诊所,凤凰街道光明壹号花园7-09号,光明区,113.9248619137395,22.73994227890908,1.15,SZ500_0035_0077,光明区,1,0,0,0,0
39f5e525919d2a95,2025,星辰明星宠物基地,A_RETAIL,high,购物服务,专卖店,宠物用品店,西丽街道西丽社区沙河路16号亿家商业中心101,南山区,113.94529253721888,22.578311320855605,1.0,SZ500_0040_0041,南山区,0,1,0,0,0
3a5f5d56a404c152,2025,呆萌宠物馆,A_RETAIL|B_LEISURE,high,购物服务,专卖店,宠物用品店,美丽家园北区呆萌宠物馆275号,龙华区,114.02894292928502,22.660099113282484,1.0,SZ500_0057_0060,龙华区,0,1,0,0,0
3a7ac0551df999b0,2025,满分虎宠物用品超市(和勘一路店),A_RETAIL,high,购物服务,专卖店,宠物用品店,坂田街道和磡村九巷12-1,龙岗区,114.05866463307451,22.62726954504717,1.0,SZ500_0063_0052,龙岗区,0,1,0,0,0
3a7de65776ee5dbe,2025,宠知心宠物医院,A_MEDICAL,high,医疗保健服务,动物医疗场所,宠物诊所,龙翔大道7059号,龙岗区,114.2359705436384,22.71634634949988,1.15,SZ500_0099_0073,龙岗区,1,0,0,0,0
3a9257ff756960bb,2025,皮蛋家宠物超市,A_RETAIL,high,购物服务,专卖店,宠物用品店,安乐三街四巷7-3号(翻身地铁站B口步行450米),宝安区,113.89206239755325,22.563187629050606,1.0,SZ500_0029_0038,宝安区,0,1,0,0,0
3ab5fdab13439ffa,2025,宠淘淘·猫粮·猫砂·狗粮宠物用品超市,A_RETAIL,high,购物服务,专卖店,宠物用品店,樟树布新村一巷17-2,龙岗区,114.15094015416852,22.61152649539733,1.0,SZ500_0082_0049,龙岗区,0,1,0,0,0
3ac91d5df8caf257,2025,Mini宠物生活馆(富康苑店),A_RETAIL,high,购物服务,专卖店,宠物用品店,龙城大道104-7号,龙岗区,114.24821254093771,22.724339681781544,1.0,SZ500_0102_0075,龙岗区,0,1,0,0,0
3adcdcba54185444,2025,医宠国际动物医院全科中心(大冲分院),A_MEDICAL,high,医疗保健服务,动物医疗场所,宠物诊所,粤海街道大冲社区铜蛟路55号大冲都市花园1-025,南山区,113.94809374075284,22.54630287570681,1.15,SZ500_0041_0034,南山区,1,0,0,0,0
3ae730c5ca518c66,2025,瑞鹏宠物医院(城市山谷店),A_MEDICAL,high,医疗保健服务,动物医疗场所,宠物诊所,粤海街道铜鼓社区沙河西路2029号城市山谷花园商业1008-1009,南山区,113.94881526209934,22.5532978911341,1.15,SZ500_0041_0036,南山区,1,0,0,0,0
3b093cca4fb5ce61,2025,火星宠物(天龙商业城店),A_RETAIL,high,购物服务,专卖店,宠物用品店,人民路二横街44号(晒布地铁站D3口步行330米),罗湖区,114.11482520941642,22.54958265280608,1.0,SZ500_0075_0036,罗湖区,0,1,0,0,0
3b58d95739495d5f,2025,宠乐优品宠物用品店,A_RETAIL,high,购物服务,专卖店,宠物用品店,接福路与塘尾东路交叉口西60米,宝安区,113.80950216024712,22.70782527098372,1.0,SZ500_0012_0069,宝安区,0,1,0,0,0
3b63aff4c9f5bf67,2025,宠乐约宠物生活馆(滨江花园店),A_RETAIL,high,购物服务,专卖店,宠物用品店,石岩街道德政路滨江花园进停车场1楼6号铺,宝安区,113.96734121458688,22.695710533728978,1.0,SZ500_0044_0067,宝安区,0,1,0,0,0
3b72c4e68d2dc5c0,2025,山姆宠物诊所,A_MEDICAL,high,医疗保健服务,动物医疗场所,宠物诊所,侨香路翠海花园10号商铺(侨香地铁站C口步行100米),福田区,114.0103285467022,22.554142260921047,1.15,SZ500_0054_0036,福田区,1,0,0,0,0
3bad64e08831c453,2025,宠物家(花园城店),A_RETAIL,high,购物服务,专卖店,宠物用品店,蛇口花园城3期2栋102铺,南山区,113.91953544329677,22.50138307292628,1.0,SZ500_0035_0024,南山区,0,1,0,0,0
3bd6fbcf436b1015,2025,亮亮喵生活馆(华强北店),A_RETAIL,high,购物服务,专卖店,宠物用品店,振华路航苑大厦1层,福田区,114.07786338384508,22.54669211659394,1.0,SZ500_0068_0035,福田区,0,1,0,0,0
3bddabf9f1e35527,2025,熊大宠物生活馆,A_RETAIL,high,购物服务,专卖店,宠物用品店,静宁路57号,光明区,113.89128247792904,22.78374272569904,1.0,SZ500_0028_0086,光明区,0,1,0,0,0
3be391f5e20b6e02,2025,宠宠趴,A_RETAIL,high,购物服务,专卖店,宠物用品店,西海岸花园西南门东南90米,宝安区,113.88419384725935,22.56575083671179,1.0,SZ500_0028_0038,宝安区,0,1,0,0,0
3c1fba4b2f0571e2,2025,哈叽咪猴派宠物,A_RETAIL,high,购物服务,专卖店,宠物用品店,福华路与岗厦一路交叉口西80米,福田区,114.06126766264164,22.537786834617823,1.0,SZ500_0064_0033,福田区,0,1,0,0,0
3c20e262c4454d2e,2025,Summer Pet宠爱有家高端宠物生活馆,A_RETAIL,high,购物服务,专卖店,宠物用品店,蛇口街道海昌社区望海路93号南海玫瑰花园二期43A商铺,南山区,113.9196682565469,22.48817501992037,1.0,SZ500_0035_0021,南山区,0,1,0,0,0
3c28b408c2abe867,2025,HW黑喂狗宠物(上塘店),A_RETAIL,high,购物服务,专卖店,宠物用品店,龙塘社区中海锦城3栋1层315,龙华区,114.0092356521682,22.64124749599885,1.0,SZ500_0053_0055,龙华区,0,1,0,0,0
3c33e7716b5aae9a,2025,瑞祥宠物店·缅因猫舍5㎞免接送费(万科时代广场9拾9街店),A_RETAIL,high,购物服务,专卖店,宠物用品店,龙城街道尚景社区龙城大道85号万科时代广场3栋A座裙楼01层3-055,龙岗区,114.24693878190106,22.722008232039784,1.0,SZ500_0102_0074,龙岗区,0,1,0,0,0
3c4c46cbd75b68ef,2025,萌兽星球宠物店,A_RETAIL,high,购物服务,专卖店,宠物用品店,东环一路香缇雅苑1栋12号,龙华区,114.03826481393118,22.64604901391411,1.0,SZ500_0059_0057,龙华区,0,1,0,0,0
3c5a9658f2fd079b,2025,米乐猫馆猫舍宠物店,A_RETAIL,high,购物服务,专卖店,宠物用品店,西乡大道与新湖路交汇处天琴阁101-2铺,宝安区,113.85989248447014,22.576166913789173,1.0,SZ500_0023_0040,宝安区,0,1,0,0,0
3c5f999f99f536ef,2025,南方宠物港,A_RETAIL,high,购物服务,专卖店,宠物用品店,上头田新村一巷6栋,宝安区,113.84048612860556,22.76176407958739,1.0,SZ500_0018_0081,宝安区,0,1,0,0,0
3d06936f8aac0b2d,2025,宠物家(沙嘴店),A_RETAIL,high,购物服务,专卖店,宠物用品店,沙头街道沙嘴社区沙嘴村一坊71号101-102,福田区,114.0337747794206,22.521092272310337,1.0,SZ500_0059_0029,福田区,0,1,0,0,0
3d0f7a1bd55abb86,2025,宠知心宠物医院汇嘉分院,A_MEDICAL,high,医疗保健服务,动物医疗场所,宠物诊所,南岭街道宝岭社桂芳园瑞香阁商业广场2548号,龙岗区,114.1349938143191,22.617925582021403,1.15,SZ500_0079_0051,龙岗区,1,0,0,0,0
3d3b30b07d11256d,2025,袖虎宠物(白石龙店),A_RETAIL,high,购物服务,专卖店,宠物用品店,万科金域华府一期206,龙华区,114.03683544305224,22.60183410098532,1.0,SZ500_0059_0047,龙华区,0,1,0,0,0
3d3e5999de5595f6,2025,松岗爱心动物医院,A_MEDICAL,high,医疗保健服务,动物医疗场所,宠物诊所,楼岗大道74号,宝安区,113.84925040527357,22.768698462964345,1.15,SZ500_0020_0083,宝安区,1,0,0,0,0
3d58ac84f3a9d26c,2025,京都猫院,A_RETAIL,high,购物服务,专卖店,宠物用品店,龙兴村一巷三号,宝安区,113.85927182640935,22.579727573095333,1.0,SZ500_0023_0041,宝安区,0,1,0,0,0
3d6fb98980b59aad,2025,大型猫舍狗舍活体售卖基地,A_RETAIL,high,购物服务,专卖店,宠物用品店,龙华街道松和社区东还路144号10栋102龙华街道清湖路与祥利路交汇处金湖雅苑D栋,龙华区,114.03200640997376,22.675441562524856,1.0,SZ500_0058_0063,龙华区,0,1,0,0,0
3d70acd9525b6436,2025,宠乐缘和一分店,A_RETAIL,high,购物服务,专卖店,宠物用品店,沙井街道和一社区和二一路7号7-1铺,宝安区,113.78057481048197,22.71452210863664,1.0,SZ500_0006_0071,宝安区,0,1,0,0,0
3d81093e1ede2c68,2025,太萌宠物生活馆,A_RETAIL|B_LEISURE,high,购物服务,专卖店,宠物用品店,爱南路866号,龙岗区,114.2233287878357,22.69383188359284,1.0,SZ500_0097_0068,龙岗区,0,1,0,0,0
3dc706fcdec21087,2025,MoMoCat猫舍,A_RETAIL,high,购物服务,专卖店,宠物用品店,福保街道石厦新天世纪商务中心C座31楼08号,福田区,114.047690283018,22.52425720562244,1.0,SZ500_0062_0030,福田区,0,1,0,0,0
3de85dd737eff911,2025,喵星萌宠猫咖宠物店,A_RETAIL|B_LEISURE,high,购物服务,专卖店,宠物用品店,布吉街道龙翔花园瑞龙轩1期106,龙岗区,114.1056945136762,22.613349456472697,1.0,SZ500_0073_0050,龙岗区,0,1,0,0,0
3e00580fd06410a1,2025,喵酱宠物店,A_RETAIL,high,购物服务,专卖店,宠物用品店,守珍街华美一巷8号(意尔康隔壁右拐),龙岗区,114.12897098421972,22.69886773302761,1.0,SZ500_0077_0069,龙岗区,0,1,0,0,0
3e1feecbaf08ab6d,2025,优佳宠物医院(罗湖中心医院店),A_MEDICAL,high,医疗保健服务,动物医疗场所,宠物诊所,翠竹街道翠竹社区爱国路3033泰宁花园ABC座102,罗湖区,114.13663163634702,22.568352446340743,1.15,SZ500_0080_0040,罗湖区,1,0,0,0,0
3e43692b22eb253f,2025,叮当宠物医院(尚景·欣园店),A_MEDICAL,high,医疗保健服务,动物医疗场所,宠物诊所,龙城街道尚景社区于中路10号尚景欣园E栋龙城大道139号,龙岗区,114.24680802491127,22.73238124727167,1.15,SZ500_0102_0077,龙岗区,1,0,0,0,0
3ea4f86e37685de8,2025,PANKKA宠物生活·宠物旅游·宠物活体,A_RETAIL,high,购物服务,专卖店,宠物用品店,天安数码城4栋B座4层64,龙岗区,114.2113913003325,22.72546371527373,1.0,SZ500_0094_0075,龙岗区,0,1,0,0,0
3ec3297306d6f2e1,2025,puppyoo宠物小屋,A_RETAIL,high,购物服务,专卖店,宠物用品店,兴龙路与湖西路交叉口东100米,龙岗区,114.1298869894039,22.60420709436365,1.0,SZ500_0078_0048,龙岗区,0,1,0,0,0
3f6b2b3dc5ab93d7,2025,宠相伴宠物生活馆(宇宏·健康花城店),A_RETAIL,high,购物服务,专卖店,宠物用品店,南旺街道康乐社区布澜路7号宇宏健康花城15栋南旺街114号,龙岗区,114.12970211416362,22.627295148785223,1.0,SZ500_0078_0053,龙岗区,0,1,0,0,0
3f8eb3bd128adbf6,2025,派佳宠物(福永新村店),A_RETAIL,high,购物服务,专卖店,宠物用品店,福永新村6巷15号,宝安区,113.80680547233294,22.67537865302852,1.0,SZ500_0011_0062,宝安区,0,1,0,0,0
3f9475ab3840631b,2025,宠来宠趣宠物店大型猫舍犬舍宠物市场,A_RETAIL,high,虚拟数据,虚拟店铺,虚拟店铺,布吉街道吉华路13号,龙岗区,114.0494641684696,22.637586231781533,1.0,SZ500_0061_0055,龙华区,0,1,0,0,0
3fa56e276125ff66,2025,聚宠动物医院,A_MEDICAL,high,医疗保健服务,动物医疗场所,宠物诊所,新沙路425号(新沙路与村前路交叉口路南),宝安区,113.81572568404648,22.73213070086453,1.15,SZ500_0013_0075,宝安区,1,0,0,0,0
3fd75c1ad8e84ab0,2025,爱逗宠物坊,A_RETAIL,high,购物服务,专卖店,宠物用品店,松山仔五巷5号,龙岗区,114.18994265396172,22.65087534477701,1.0,SZ500_0090_0058,龙岗区,0,1,0,0,0
3fdcc74d71483651,2025,YuYu宠物(大东城2期别墅店),A_RETAIL,high,购物服务,专卖店,宠物用品店,大东城2期南门西南120米,坪山区,114.33228435248546,22.70841423534359,1.0,SZ500_0119_0072,坪山区,0,1,0,0,0
403a0106dd9c87fa,2025,贝克和史东动物医院(蛇口分院),A_MEDICAL,high,医疗保健服务,动物医疗场所,宠物诊所,后海滨路君汇新天花园1栋116号商铺,南山区,113.93339368004172,22.505706771021245,1.15,SZ500_0038_0025,南山区,1,0,0,0,0
404da5e3cef51132,2025,猫小爪宠物零食用品,A_RETAIL,high,购物服务,专卖店,宠物用品店,雪象花园新村道南二巷15号101,龙岗区,114.07022383601516,22.65209258583737,1.0,SZ500_0066_0058,龙岗区,0,1,0,0,0
405325511ee1a40c,2025,宠部落宠物用品店,A_RETAIL,high,购物服务,专卖店,宠物用品店,水库新村三街与水库新村二街交叉口东100米,罗湖区,114.133600041262,22.568191301450646,1.0,SZ500_0079_0040,罗湖区,0,1,0,0,0
406a816d922b41c7,2025,Mini星球猫馆,A_RETAIL,high,购物服务,专卖店,宠物用品店,澳门新村26栋(白石龙地铁站D口步行260米),龙华区,114.03989450954032,22.60368535915568,1.0,SZ500_0060_0047,龙华区,0,1,0,0,0
407d226dbd4b3b86,2025,猫狗日记(宠物屋),A_RETAIL,high,购物服务,专卖店,宠物用品店,坂田街道万科第五园八期五栋120铺门牌号坂园路64号,龙岗区,114.06355541021918,22.61487765085612,1.0,SZ500_0064_0050,龙岗区,0,1,0,0,0
40bc594d4ce46cc2,2025,宠悦园宠物医院(坪山店),A_MEDICAL,high,医疗保健服务,动物医疗场所,宠物诊所,坪山新区中山大道3003-5758号东方威尼斯花园(好邻居家政旁),坪山区,114.33510133151024,22.68907586439904,1.15,SZ500_0120_0067,坪山区,1,0,0,0,0
40bed9ba849b4f81,2025,宠物陆战队宠物店,A_RETAIL,high,购物服务,专卖店,宠物用品店,宝安大道6020号101铺,宝安区,113.8246324556448,22.63875688308606,1.0,SZ500_0015_0054,宝安区,0,1,0,0,0
40f0377dcbef2906,2025,元气大浴场24小时自助宠物店(深圳海峦坊店),A_RETAIL,high,购物服务,专卖店,宠物用品店,西乡街道凤凰岗社区宝田一路海峦坊1层20号,宝安区,113.87562362271277,22.59842633286413,1.0,SZ500_0026_0045,宝安区,0,1,0,0,0
40f29ee59f9cece6,2025,晴天宠物生活馆,A_RETAIL,high,购物服务,专卖店,宠物用品店,赤岭头新一村143栋,龙华区,114.00611857535628,22.65513609350118,1.0,SZ500_0052_0058,龙华区,0,1,0,0,0
415c30edce810a2f,2025,乐家宠物生活馆(装修中),A_RETAIL,high,购物服务,专卖店,宠物用品店,小榄镇益隆乐华路和平巷1号,龙岗区,114.15352296287584,22.608839410884467,1.0,SZ500_0083_0049,龙岗区,0,1,0,0,0
41a56e6c5ecb6694,2025,咯咯熊·猫馆(猫咪专卖),A_RETAIL,high,购物服务,专卖店,宠物用品店,新安街道灵芝园社区19区17栋新安二路153号,宝安区,113.9086657994918,22.56983402985386,1.0,SZ500_0033_0039,宝安区,0,1,0,0,0
41cbb120cb78ef94,2025,深圳市龙华区壹猫先生宠物工作室,A_RETAIL,high,购物服务,专卖店,宠物用品店,龙光玖钻北区3A栋44楼,龙华区,114.01593917735008,22.62526153054439,1.0,SZ500_0055_0052,龙华区,0,1,0,0,0
4228def8897ae60b,2025,福恩宠物医院·猫科·骨科中心(公明总院),A_MEDICAL,high,医疗保健服务,动物医疗场所,宠物诊所,马田街道合水口社区上屯新村一排11栋B座101,光明区,113.88327170158487,22.78214436839928,1.15,SZ500_0027_0086,光明区,1,0,0,0,0
425eae1395c6f783,2025,向日葵宠物店(风和日丽店),A_RETAIL,high,购物服务,专卖店,宠物用品店,龙华人民路3272号商铺,龙华区,114.02383025367752,22.64569612001161,1.0,SZ500_0056_0056,龙华区,0,1,0,0,0
42919aae72f57188,2025,瑞鹏宠物医院(坂雪岗分院),A_MEDICAL,high,医疗保健服务,动物医疗场所,宠物诊所,坂田街道坂雪岗大道3016号中海日辉台7栋1单元105号,龙岗区,114.06334870068132,22.64396979755613,1.15,SZ500_0064_0056,龙岗区,1,0,0,0,0
42967d3e9ec67a50,2025,爱豆宠物天峦店,A_RETAIL,high,购物服务,专卖店,宠物用品店,宝沙一路振业天峦1-26号商铺,龙岗区,114.25710047109014,22.685174032581124,1.0,SZ500_0104_0066,龙岗区,0,1,0,0,0
42a2d3dbfd537aed,2025,jiojio宠物生活馆(中海·康城花园二期店),A_RETAIL,high,购物服务,专卖店,宠物用品店,官塘直街与清辉路交叉口北40米,龙岗区,114.2055093932652,22.71289399064617,1.0,SZ500_0093_0072,龙岗区,0,1,0,0,0
42c7080bf5291b86,2025,Pet Island爱宠岛,A_RETAIL,high,购物服务,专卖店,宠物用品店,南水街251号(水湾地铁站C口步行300米),南山区,113.91708726264918,22.49151993661313,1.0,SZ500_0035_0022,南山区,0,1,0,0,0
42d66ae1820a1852,2025,联合猫专科(西湖林语店),A_MEDICAL,high,医疗保健服务,动物医疗场所,宠物诊所,西湖林语北2门西60米(西丽湖地铁站B口步行170米),南山区,113.95993212823792,22.596186629033685,1.15,SZ500_0043_0045,南山区,1,0,0,0,0
42d6c01385d88b21,2025,猫狗天地·寄托·收养·救助基地,A_RETAIL,high,购物服务,专卖店,宠物用品店,迳口路优狗乐50号,光明区,113.95031731436586,22.76903724915765,1.0,SZ500_0040_0083,光明区,0,1,0,0,0
4307369a73226e17,2025,九颐宠物医院,A_MEDICAL,high,医疗保健服务,动物医疗场所,宠物诊所,宝石东路与吉祥路交叉口东北60米,宝安区,113.9373959058542,22.68327824452572,1.15,SZ500_0038_0064,宝安区,1,0,0,0,0
4309b4918090b186,2025,联合宠物医院(民塘分院),A_MEDICAL,high,医疗保健服务,动物医疗场所,宠物诊所,民治街道龙塘社区御龙华庭170-171,龙华区,114.01121580117685,22.6400668021715,1.15,SZ500_0054_0055,龙华区,1,0,0,0,0
436b6e0084b51577,2025,乐善宠物猫狗售卖-善终-服务中心(福田店),A_RETAIL,high,购物服务,专卖店,宠物用品店,沙头街道新洲社区新洲北村88号109,福田区,114.04201351291852,22.52898669398716,1.0,SZ500_0060_0031,福田区,0,1,0,0,0
439d22362ee74698,2025,猫狗市场(万科店),A_RETAIL,high,购物服务,专卖店,宠物用品店,坂田街道第五园社区雅园路9号万科第五园三期商业街D145,龙岗区,114.06626503620735,22.615494556666725,1.0,SZ500_0065_0050,龙岗区,0,1,0,0,0
43b17b5bd938575a,2025,婷姐宠物(正高店),A_RETAIL,high,购物服务,专卖店,宠物用品店,新安六路与玉林路交叉口南80米,宝安区,113.86931658724464,22.565580005584263,1.0,SZ500_0025_0038,宝安区,0,1,0,0,0
43b1f3fd2ba13d30,2025,粤上猫咪领养宠物店猫舍基地市场,A_RETAIL,high,购物服务,专卖店,宠物用品店,民治街道民强社区1栋民治大道,龙华区,114.03528126114652,22.62101301425488,1.0,SZ500_0059_0051,龙华区,0,1,0,0,0
43bfaf7eb04ba19e,2025,好奇宠物生活馆,A_RETAIL,high,购物服务,购物相关场所,购物相关场所,文锦中路2014号合正荣悦府1楼06商铺,罗湖区,114.12392874523152,22.555393047427213,1.0,SZ500_0077_0037,罗湖区,0,1,0,0,0
4401024fad4b5294,2025,爱乐乐宠物用品(南山店),A_RETAIL,high,购物服务,专卖店,宠物用品店,南头街道马家龙社区玉泉路110号爱乐乐宠物用品店,南山区,113.92143804939089,22.549592324004248,1.0,SZ500_0035_0035,南山区,0,1,0,0,0
44209a7fbdb7d117,2025,喵叭宠物(大浪店),A_RETAIL,high,购物服务,专卖店,宠物用品店,郭吓一区十三巷9-2,龙华区,114.0111751827125,22.666656442154444,1.0,SZ500_0053_0061,龙华区,0,1,0,0,0
4434687785fa35ab,2025,仁爱动物医院·异宠科骨科心脏科·微创绝育中心医院,A_MEDICAL,high,医疗保健服务,动物医疗场所,宠物诊所,圩背老街与石岩老街交叉口南100米,宝安区,113.92654872993911,22.68408358198256,1.15,SZ500_0036_0065,宝安区,1,0,0,0,0
44493701d4a13e76,2025,派特堡宠物医院·猫科·全科门诊(桃花源分院),A_MEDICAL,high,医疗保健服务,动物医疗场所,宠物诊所,西乡街道桃源社区桃源居二区6栋101A,宝安区,113.85639478822677,22.6154901667884,1.15,SZ500_0022_0049,宝安区,1,0,0,0,0
44657fec65b6087c,2025,萌宠宠物生活馆(玉华花园店),A_RETAIL|B_LEISURE,high,购物服务,专卖店,宠物用品店,玉华花园东南门旁,龙华区,114.02256230536864,22.64354810591429,1.0,SZ500_0056_0056,龙华区,0,1,0,0,0
44c1a3322a48c6bf,2025,叁加壹,A_RETAIL,high,购物服务,专卖店,宠物用品店,前进二路135-4号,宝安区,113.8617355972303,22.608826333090686,1.0,SZ500_0023_0048,宝安区,0,1,0,0,0
44c64f538ec772ea,2025,茉茉花园PET CLUB·宠物寄养·游泳·生日派对,A_RETAIL|A_BOARDING,high,购物服务,专卖店,宠物用品店,韵梅路与咏梅四路交叉口西南40米,龙华区,114.03957572461508,22.624852754092167,1.1,SZ500_0059_0052,龙华区,0,1,0,1,0
44de220f66d119ce,2025,宠物家(水围十街店),A_RETAIL,high,购物服务,专卖店,宠物用品店,水围村218栋1层103号,福田区,114.05754464945244,22.52429487396266,1.0,SZ500_0064_0030,福田区,0,1,0,0,0
4519496ddba677cf,2025,宠物超市(和鹏苑店),A_RETAIL,high,购物服务,专卖店,宠物用品店,龙华街道办水斗老围村南工业区和鹏苑,龙华区,114.04362172595695,22.63616824199384,1.0,SZ500_0060_0054,龙华区,0,1,0,0,0
452a64145ab08eff,2025,易乐宠宠物用品超市,A_RETAIL,high,购物服务,专卖店,宠物用品店,皇岗上围一村89栋101,福田区,114.05775410647072,22.52884629169882,1.0,SZ500_0064_0031,福田区,0,1,0,0,0
452d11c8399ff846,2025,怡熙宠物店,A_RETAIL,high,购物服务,购物相关场所,购物相关场所,盛平中路38号-2号,龙岗区,114.25118450531188,22.73830563832996,1.0,SZ500_0102_0078,龙岗区,0,1,0,0,0
454bb7d9de114833,2025,宠物市场猫舍犬舍宠物基地大型狗场宠物店宠物街宠萌(只卖活体),A_RETAIL,high,虚拟数据,虚拟店铺,虚拟店铺,深圳鹏润达环球服贸广场,龙华区,114.01749820460051,22.628588401206777,1.0,SZ500_0055_0053,龙华区,0,1,0,0,0
455409549720b61e,2025,乌龙爬宠部落(信和购物广场),A_RETAIL|B_AQUARIUM,high,购物服务,专卖店,宠物用品店,南海大道2088号信和自由广场4楼,南山区,113.9199128858723,22.50933562701981,1.0,SZ500_0035_0026,南山区,0,1,0,0,0
457155ce899acae3,2025,瑞鹏宠物医院·心脏科·内科·外科·肿瘤科(宝体店),A_MEDICAL,high,医疗保健服务,动物医疗场所,宠物诊所,新安街道海裕社区83区金成时代家园3栋雅典居108,宝安区,113.87775953110534,22.56500442974721,1.15,SZ500_0026_0038,宝安区,1,0,0,0,0
45f3b48f6964da41,2025,瑞鹏宠物医院(慢城分院),A_MEDICAL,high,医疗保健服务,动物医疗场所,宠物诊所,景芬路9号商铺首层101-01A号,龙岗区,114.12037298682172,22.62526759467993,1.15,SZ500_0076_0052,龙岗区,1,0,0,0,0
45fab40c89c007f5,2025,尾大的喵宠物工作室(华讯中心店),A_RETAIL,high,购物服务,专卖店,宠物用品店,宝安南路2167号华讯中心,罗湖区,114.10412587404416,22.55241929183708,1.0,SZ500_0073_0036,福田区,0,1,0,0,0
4606f5dfa5281275,2025,深圳超有乐宠物用品有限公司,A_RETAIL,high,公司企业,公司,公司,保华一路与保福二路交叉口西北80米,福田区,114.063655570815,22.53433127359368,1.0,SZ500_0065_0032,福田区,0,1,0,0,0
4607efd2a7074d0e,2025,派多格宠物(六约店),A_RETAIL,high,购物服务,专卖店,宠物用品店,中海大山地26栋119商铺,龙岗区,114.1734189477457,22.64573383112444,1.0,SZ500_0087_0057,龙岗区,0,1,0,0,0
462cf3b9b225a7c6,2025,佩拉宠物(龙胜店),A_RETAIL,high,购物服务,专卖店,宠物用品店,和平里花园一期f栋63号,龙华区,114.00873463513432,22.64541518855979,1.0,SZ500_0053_0056,龙华区,0,1,0,0,0
46453e8967dd227d,2025,Kimi宠物馆(满京华·云著店),A_RETAIL,high,购物服务,专卖店,宠物用品店,松瑞路与艺展一路交叉口东南80米,宝安区,113.82733123423908,22.78585047877459,1.0,SZ500_0015_0087,宝安区,0,1,0,0,0
46d5aa340cb893b1,2025,贝尔宠物诊所,A_MEDICAL,high,医疗保健服务,动物医疗场所,宠物诊所,贝尔路中海日辉台7栋B110商铺,龙岗区,114.06352553637733,22.64397352515598,1.15,SZ500_0064_0056,龙岗区,1,0,0,0,0
46d6a77230480f41,2025,瑞派宠物医院(皇家时代广场店),A_MEDICAL,high,医疗保健服务,动物医疗场所,宠物诊所,福田街道金田路宣嘉华庭裙楼106(时代广场一楼),福田区,114.06106688340316,22.52219895589602,1.15,SZ500_0064_0029,福田区,1,0,0,0,0
46fc1de5f03903ae,2025,享它乐宠物用品店,A_RETAIL,high,购物服务,专卖店,宠物用品店,和兴一巷12-1号,龙岗区,114.18082650029054,22.63764833072558,1.0,SZ500_0088_0055,龙岗区,0,1,0,0,0
4721231dab53c674,2025,宠遇宠物店,A_RETAIL,high,购物服务,购物相关场所,购物相关场所,盐田夜市街156号,宝安区,113.85478688125656,22.584863930194647,1.0,SZ500_0022_0042,宝安区,0,1,0,0,0
475b37869ae1d8f9,2025,派特堡宠物医院花菱海关总院,A_MEDICAL,high,医疗保健服务,动物医疗场所,宠物诊所,龙城街道清林路166号(海关大厦对面),龙岗区,114.2264139438064,22.72275196533027,1.15,SZ500_0097_0074,龙岗区,1,0,0,0,0
475d36760072528c,2025,宠友记Pet Friends宠物综合体验中心,A_RETAIL,high,购物服务,专卖店,宠物用品店,滨河大道花样年·花好园9299-41号,福田区,114.0196913195931,22.53054835179642,1.0,SZ500_0056_0031,福田区,0,1,0,0,0
47722f0ee05111f3,2025,宠物家(华润城万象天地店),A_RETAIL,high,购物服务,专卖店,宠物用品店,万象天地里巷L2层NL208,南山区,113.95176134058572,22.54514341192793,1.0,SZ500_0042_0034,南山区,0,1,0,0,0
4776622ec76c00cf,2025,宠物家(粤鹏大厦店),A_RETAIL,high,购物服务,专卖店,宠物用品店,嘉宾路1019号粤鹏大厦F1层,罗湖区,114.11920535967906,22.543788481265064,1.0,SZ500_0076_0034,罗湖区,0,1,0,0,0
4780da8aa761296b,2025,宠宠宠物市场宠物店宠物犬舍猫舍狗场(富洲商务店),A_RETAIL,high,购物服务,购物相关场所,购物相关场所,横岗街道莲心路新塘坑南一巷2号富洲商务,龙岗区,114.1943511897447,22.6453581025718,1.0,SZ500_0091_0057,龙岗区,0,1,0,0,0
47cf0974adcfe741,2025,亿生护宠大药房,A_MEDICAL,high,医疗保健服务,动物医疗场所,宠物诊所,民治街道樟坑三区86-1(龙华大道1504),龙华区,114.03367295953866,22.614053256419744,1.15,SZ500_0058_0049,龙华区,1,0,0,0,0
47d6cc6330e4b6b3,2025,宠物家(西丽宝能环球汇店),A_RETAIL,high,购物服务,专卖店,宠物用品店,留仙大道3288号宝能环球汇西丽店B1层,南山区,113.99327895528783,22.59448539138583,1.0,SZ500_0050_0045,南山区,0,1,0,0,0
47d721833b22bc73,2025,z先生宠物生活馆,A_RETAIL,high,购物服务,专卖店,宠物用品店,长龙二区一巷五号101室,龙岗区,114.1111980730998,22.612951939718137,1.0,SZ500_0074_0050,龙岗区,0,1,0,0,0
47d794dda8aedcb0,2025,瑞派宠物医院(康德南头院),A_MEDICAL,high,医疗保健服务,动物医疗场所,宠物诊所,南头街道南新路3036号统建综合楼1楼2号(中南海滨大酒店对面),南山区,113.91531512333776,22.54072447805243,1.15,SZ500_0034_0033,南山区,1,0,0,0,0
47dd61dc673b5f54,2025,萌宠世界,A_RETAIL|B_LEISURE,high,购物服务,专卖店,宠物用品店,民生大道与上利路交叉口东南120米,光明区,113.90470230041416,22.784262787588688,1.0,SZ500_0031_0087,光明区,0,1,0,0,0
47e890a41d0e8500,2025,笑笑宠物馆,A_RETAIL,high,购物服务,专卖店,宠物用品店,马峦街道坪环社区大万新村八巷1-3,坪山区,114.33923750098714,22.68360943613633,1.0,SZ500_0121_0066,坪山区,0,1,0,0,0
4803fb4aee8856a7,2025,喵小姐の萌宠屋,A_RETAIL|B_LEISURE,high,购物服务,专卖店,宠物用品店,龙城街道吉祥社区鸿进路鸿进花园26号1-101,龙岗区,114.2378178497802,22.713592000571907,1.0,SZ500_0100_0072,龙岗区,0,1,0,0,0
480db44d7b72d918,2025,唯它宠物生活馆(理想店),A_RETAIL,high,购物服务,专卖店,宠物用品店,布吉街道金排社区金稻田路1228号理想新城1栋117,龙岗区,114.12247878073016,22.591913650120656,1.0,SZ500_0077_0045,龙岗区,0,1,0,0,0
483fb65e3fd92ff6,2025,深圳派多格宠物美容培训学校,A_GROOMING,high,科教文化服务,科教文化场所,科教文化场所,南新路10号,龙岗区,114.14363233718947,22.60699708803996,0.95,SZ500_0081_0048,龙岗区,0,0,1,0,0
4848d6744b3e9ff4,2025,瑞鹏宠物医院(五和分院),A_MEDICAL,high,医疗保健服务,动物医疗场所,宠物诊所,坂田街道五和大道51-6号,龙岗区,114.05527712574428,22.621126687201286,1.15,SZ500_0063_0051,龙岗区,1,0,0,0,0
4866d0225d122e9d,2025,新新连锁宠物医院(长圳分院),A_MEDICAL,high,医疗保健服务,动物医疗场所,宠物诊所,凤凰街道甲子塘社区凤凰英荟城3栋A座一单元105,光明区,113.92604599287884,22.730822710468427,1.15,SZ500_0036_0075,光明区,1,0,0,0,0
48a9b2c98c399934,2025,犬色(顺景花园店),A_RETAIL,high,购物服务,专卖店,宠物用品店,中心城龙翔大道5031号顺景花园40号铺,龙岗区,114.22323592155762,22.70497592198418,1.0,SZ500_0097_0070,龙岗区,0,1,0,0,0
48af006d2a094550,2025,猫狗小站,A_RETAIL,high,购物服务,专卖店,宠物用品店,上芬小学路61号隔圳新村91栋,龙华区,114.0127112174262,22.638340682622463,1.0,SZ500_0054_0055,龙华区,0,1,0,0,0
48f2c90232abc0af,2025,宠乐宠物店,A_RETAIL,high,购物服务,专卖店,宠物用品店,水库新村统建楼9栋A座4号,罗湖区,114.1349229526167,22.567238181851447,1.0,SZ500_0079_0040,罗湖区,0,1,0,0,0
4902d03ab9077bb7,2025,宠物家(阳光棕榈园店),A_RETAIL,high,购物服务,专卖店,宠物用品店,学府路263号大新时代大厦121-122号,南山区,113.90688351755227,22.53061053376278,1.0,SZ500_0033_0030,南山区,0,1,0,0,0
49086aa3a6e8c957,2025,宠乖乖宠物猫舍犬舍基地,A_RETAIL,high,购物服务,专卖店,宠物用品店,和平路52号鸿华中心(清湖北地铁站C口步行150米),龙华区,114.0341910639853,22.67312443917518,1.0,SZ500_0058_0063,龙华区,0,1,0,0,0
490882ab5df414a0,2025,天天乐宠物(汇鑫花园店),A_RETAIL,high,购物服务,专卖店,宠物用品店,北斗路2号汇鑫花园,罗湖区,114.1308778359124,22.54523876444742,1.0,SZ500_0079_0035,罗湖区,0,1,0,0,0
492a46a39ec74ce1,2025,胖胖喵屋宠物工作室,A_RETAIL,high,购物服务,专卖店,宠物用品店,星光华庭1号楼A303,宝安区,113.80757983059132,22.74591403977435,1.0,SZ500_0011_0078,宝安区,0,1,0,0,0
498153ae65a7eb60,2025,康元宠物用品店,A_RETAIL,high,购物服务,专卖店,宠物用品店,洲石路28号102,宝安区,113.9156926376685,22.67515904886134,1.0,SZ500_0034_0063,宝安区,0,1,0,0,0
498fbabe726e1804,2025,好好宠物医院总院,A_MEDICAL,high,医疗保健服务,动物医疗场所,宠物诊所,民治办事处汇龙苑9幢107,龙华区,114.03775233331996,22.60701107089261,1.15,SZ500_0059_0048,龙华区,1,0,0,0,0
49a2540b75de7e03,2025,伍六柒宠物汇邦分店(汇邦中心店),A_RETAIL,high,购物服务,专卖店,宠物用品店,石岩街道德政路12号汇裕名都花园红荔村肠粉店下面负一楼(二期)1栋B12,宝安区,113.96680636640096,22.694993102706803,1.0,SZ500_0044_0067,宝安区,0,1,0,0,0
49b0c2194e574949,2025,宠物地带(水湾B区店),A_RETAIL,high,购物服务,专卖店,宠物用品店,太子路119号(水湾地铁站C口旁),南山区,113.91500918720386,22.4917902544524,1.0,SZ500_0034_0022,南山区,0,1,0,0,0
49b157be4a5a73c7,2025,花菱动物医院坪山分院·重症医学中心,A_MEDICAL,high,医疗保健服务,动物医疗场所,宠物诊所,坪山大道与洋岭路交叉口北80米,坪山区,114.33428862114737,22.688083646428204,1.15,SZ500_0120_0067,坪山区,1,0,0,0,0
49d1002d9eca723e,2025,哈妮宠物用品(龙岗店),A_RETAIL,high,购物服务,购物相关场所,购物相关场所,宏福路与吉福路交叉口路西福园新村西区3栋101,龙岗区,114.2314792065873,22.72554907544177,1.0,SZ500_0098_0075,龙岗区,0,1,0,0,0
49eabf86a7ca1b2c,2025,哈尼宠物用品店,A_RETAIL,high,购物服务,专卖店,宠物用品店,东龙新村四区2号楼,龙华区,114.018659754663,22.639008128062635,1.0,SZ500_0055_0055,龙华区,0,1,0,0,0
4a009b2f3530b246,2025,旺康宠物诊所(工业路店),A_MEDICAL,high,医疗保健服务,动物医疗场所,宠物诊所,工业西路177号(龙华中学对面),龙华区,114.00864999264532,22.658637737001097,1.15,SZ500_0053_0059,龙华区,1,0,0,0,0
4a0e4c3fcbd90021,2025,爱德宠物诊所,A_MEDICAL,high,医疗保健服务,动物医疗场所,宠物诊所,松柏路165号,龙岗区,114.20813086134424,22.655286640442625,1.15,SZ500_0094_0059,龙岗区,1,0,0,0,0
4a189bbe103e65b9,2025,掉毛怪星球,A_RETAIL,high,购物服务,专卖店,宠物用品店,环碧路140号,盐田区,114.29532471984452,22.604218087759147,1.0,SZ500_0112_0048,盐田区,0,1,0,0,0
4a3513de6016b722,2025,宠禧派自助宠物洗护(碧海富通城六期店),A_GROOMING,high,购物服务,购物相关场所,购物相关场所,碧海富通城六期十七栋154,宝安区,113.8523648538758,22.570894539228146,0.95,SZ500_0021_0039,宝安区,0,0,1,0,0
4a3766eb0f49a0da,2025,旺旺宠物(后海名苑居南区店),A_RETAIL,high,购物服务,专卖店,宠物用品店,后海大道后海名苑居南栋2307,南山区,113.9271842827192,22.51240548861244,1.0,SZ500_0037_0026,南山区,0,1,0,0,0
4a92964c066a8a0b,2025,它它宠物医院,A_MEDICAL,high,医疗保健服务,动物医疗场所,宠物诊所,福保街道桂花路15号红树绿洲15-10商铺,福田区,114.0464480612724,22.512073323348748,1.15,SZ500_0061_0027,福田区,1,0,0,0,0
4aadf5a943d859be,2025,小怪兽宠物(锦绣江南店),A_RETAIL,high,购物服务,专卖店,宠物用品店,龙胜路锦绣江南三期73号,龙华区,114.02373779254208,22.64064535995643,1.0,SZ500_0056_0055,龙华区,0,1,0,0,0
4ad7fb2d61c6bde4,2025,灵宠族宠物店,A_RETAIL,high,购物服务,购物相关场所,购物相关场所,西丽镇荔景湾商业街4号(茶光地铁站A口步行470米),南山区,113.94683234559736,22.58033613914713,1.0,SZ500_0041_0042,南山区,0,1,0,0,0
4ae0ad19cf69b66c,2025,宇宙联萌宠物星球(龙华总店),A_RETAIL|B_LEISURE,high,购物服务,专卖店,宠物用品店,景龙建设路龙泽榕园首层A栋112-115号铺(龙华优品建筑南门对面),龙华区,114.01752180164526,22.6493853973288,1.0,SZ500_0055_0057,龙华区,0,1,0,0,0
4b5728d5fcb1a8cc,2025,至美宠物医院,A_MEDICAL,high,医疗保健服务,动物医疗场所,宠物诊所,立业路7-101号,宝安区,113.84881651857768,22.76540278107187,1.15,SZ500_0020_0082,宝安区,1,0,0,0,0
4b750bdd68d2aae1,2025,瑞派宠物医院大芊蛇口分院,A_MEDICAL,high,医疗保健服务,动物医疗场所,宠物诊所,南片区蛇口海昌社区望海路南海玫瑰园二期54号商铺1103-45,南山区,113.92031815941776,22.48804949160218,1.15,SZ500_0035_0021,南山区,1,0,0,0,0
4c1370b7edcad00a,2025,永建宠物猫舍犬舍,A_RETAIL,high,购物服务,专卖店,宠物用品店,环亚生物科技(深圳)有限公司北侧,南山区,113.93748401933956,22.61711647700912,1.0,SZ500_0038_0050,南山区,0,1,0,0,0
4c1e8147bef1a169,2025,萌汪宠物销售基地,A_RETAIL,high,购物服务,专卖店,宠物用品店,山塘尾院区式小区十二巷10栋,龙岗区,114.24399105265658,22.72781609637663,1.0,SZ500_0101_0076,龙岗区,0,1,0,0,0
4c3f384cb1b35a63,2025,派特堡宠物医院·口腔转诊中心·CT·肿瘤专科(爱宁分院),A_MEDICAL,high,医疗保健服务,动物医疗场所,宠物诊所,沙头街道新洲社区新洲北村55号102,福田区,114.04091640134904,22.5302902052517,1.15,SZ500_0060_0031,福田区,1,0,0,0,0
4c5ac398b6c1c9b1,2025,宠物家(桂芳园店),A_RETAIL,high,购物服务,专卖店,宠物用品店,中怡路22号中翠花园(大芬地铁站A2口步行250米),龙岗区,114.13488366879234,22.61647966699337,1.0,SZ500_0079_0050,龙岗区,0,1,0,0,0
4c90d2b2cea479aa,2025,瑞康宠物诊所,A_MEDICAL,high,医疗保健服务,动物医疗场所,宠物诊所,建安一路379号2层208号,宝安区,113.89653971935746,22.569260488530084,1.15,SZ500_0030_0039,宝安区,1,0,0,0,0
4caaa7c232b2bfd6,2025,小巷宠物,A_RETAIL,high,购物服务,专卖店,宠物用品店,马峦社区坪环统建楼南区九巷五号5-2,坪山区,114.34343727891684,22.68503736502463,1.0,SZ500_0122_0067,坪山区,0,1,0,0,0
4ce5f877c5414a2d,2025,喵汪的城堡(鸿基花园东区店),A_RETAIL,high,购物服务,专卖店,宠物用品店,鸿基花园东区西北1门旁(吉祥地铁站D口步行460米),龙岗区,114.23664949389978,22.71397334420427,1.0,SZ500_0100_0072,龙岗区,0,1,0,0,0
4cf16dc4072bb048,2025,奇遇马尔济斯·约克夏宠物屋(宝能公馆店),A_RETAIL,high,购物服务,专卖店,宠物用品店,臻湾汇F栋16楼1603,南山区,113.96391186553976,22.527699218668257,1.0,SZ500_0044_0030,南山区,0,1,0,0,0
4d1aef86acf9c097,2025,新锐宠物医院·24H急重症(塘尾店),A_MEDICAL,high,医疗保健服务,动物医疗场所,宠物诊所,福海街道塘尾十五区一巷三号(塘尾社区公交站旁),宝安区,113.80601360925252,22.70455108567922,1.15,SZ500_0011_0069,宝安区,1,0,0,0,0
4d27caeb5867929c,2025,满分虎宠物用品超市,A_RETAIL,high,购物服务,专卖店,宠物用品店,洋母帐六巷与安得路交叉口东南80米,坪山区,114.3304702980653,22.689833475709253,1.0,SZ500_0119_0068,坪山区,0,1,0,0,0
4d47026e344ab69b,2025,Best Cat喵小仔,A_RETAIL,high,购物服务,专卖店,宠物用品店,布吉街道长吉路65号长龙花园,龙岗区,114.1102317386934,22.61435520260942,1.0,SZ500_0074_0050,龙岗区,0,1,0,0,0
4d6341f6e6ece2c8,2025,宠邻居,A_RETAIL,high,购物服务,专卖店,宠物用品店,沙头角天富花园1层百佳乐商业城28号商铺,盐田区,114.2265579819912,22.55263268569499,1.0,SZ500_0098_0037,盐田区,0,1,0,0,0
4d65095264836402,2025,泰咛宠物医院猫专科(坂田分院),A_MEDICAL,high,医疗保健服务,动物医疗场所,宠物诊所,坂田街道坂雪岗大道3005号101,龙岗区,114.06204623505914,22.639638672812723,1.15,SZ500_0064_0055,龙岗区,1,0,0,0,0
4dac2285f232f156,2025,倍思宠宠物医院丨全科宠物中心,A_MEDICAL,high,医疗保健服务,动物医疗场所,宠物诊所,新桥街道北环路95-97号,宝安区,113.83573101849618,22.73744073947596,1.15,SZ500_0017_0076,宝安区,1,0,0,0,0
4dbc7c00c3527e4e,2025,宝安犬语者宠物狗犬舍,A_RETAIL,high,购物服务,专卖店,宠物用品店,航城街道鸿丰华互联网创意园F5-009室,宝安区,113.84294911515816,22.629431863261185,1.0,SZ500_0019_0052,宝安区,0,1,0,0,0
4dccfdb914a61502,2025,宠物家(壹间公寓·坂田嘉御山店),A_RETAIL,high,购物服务,专卖店,宠物用品店,坂田街道信义御珑豪园3663-40号,龙岗区,114.05397451959468,22.64114854653883,1.0,SZ500_0062_0056,龙华区,0,1,0,0,0
4df4b107651cd41f,2025,壹家宠物店,A_RETAIL,high,购物服务,购物相关场所,购物相关场所,永香西路20号,龙岗区,114.05735631646094,22.62481227005008,1.0,SZ500_0063_0052,龙岗区,0,1,0,0,0
4dfbca39156dc00d,2025,联合宠物医院(宝中分院),A_MEDICAL,high,医疗保健服务,动物医疗场所,宠物诊所,裕安一路3016号尚都3066号,宝安区,113.88275884102924,22.56315599640917,1.15,SZ500_0027_0038,宝安区,1,0,0,0,0
4e3b63fd94e26d99,2025,你老猫宠物店,A_RETAIL,high,购物服务,专卖店,宠物用品店,华兴楼正门旁,宝安区,113.86591584542424,22.576091505906945,1.0,SZ500_0024_0040,宝安区,0,1,0,0,0
4e48990c3eed9670,2025,亮亮猫舍,A_RETAIL,high,购物服务,专卖店,宠物用品店,南新路2145号,南山区,113.91349948105028,22.531973013545663,1.0,SZ500_0034_0031,南山区,0,1,0,0,0
4e710eb9efddf715,2025,喵屿汪宠物生活服务馆,A_RETAIL,high,购物服务,专卖店,宠物用品店,东滨路4240号鼎太风华七期,南山区,113.90281196888962,22.51872258823482,1.0,SZ500_0032_0028,南山区,0,1,0,0,0
4e98897e4b4a872d,2025,财猫双犬宠物生活馆,A_RETAIL,high,购物服务,专卖店,宠物用品店,悦彩城2栋116商铺,罗湖区,114.12867005254982,22.5812316743561,1.0,SZ500_0078_0043,罗湖区,0,1,0,0,0
4eaacd9f44677f26,2025,丸宠屋宠物精致生活馆(雅豪祥苑店),A_RETAIL,high,购物服务,专卖店,宠物用品店,龙岗街道平南社区龙河路37号雅豪祥苑6栋497号,龙岗区,114.25487691211468,22.72856403550341,1.0,SZ500_0103_0076,龙岗区,0,1,0,0,0
4f19f0f83925a6df,2025,深圳新阳高端宠物店狗场犬舍店,A_RETAIL,high,购物服务,专卖店,宠物用品店,石岩街道浪心社区青年西路15号436,宝安区,113.92010730709256,22.67610666074692,1.0,SZ500_0035_0063,宝安区,0,1,0,0,0
4f4b7f1f1e013b8b,2025,当狗爱上猫宠物批发,A_RETAIL,high,购物服务,专卖店,宠物用品店,龙城街道尚景社区松仔岭二路御府名筑4栋D2,龙岗区,114.2456531615837,22.731999201703605,1.0,SZ500_0101_0077,龙岗区,0,1,0,0,0
4f521d848458229d,2025,深圳市南山区动物防疫监督所,A_MEDICAL,high,医疗保健服务,动物医疗场所,动物医疗场所,学府路131号南山区农产品监督检验大楼F1层,南山区,113.90622718721076,22.53081465905491,1.15,SZ500_0032_0030,南山区,1,0,0,0,0
4fbe525f9ae8c6ce,2025,润泰宠物医院24H·猫科医学转诊中心(观澜院),A_MEDICAL,high,医疗保健服务,动物医疗场所,宠物诊所,观澜人民路51号,龙华区,114.03797348445184,22.705668921798427,1.15,SZ500_0059_0070,龙华区,1,0,0,0,0
5013cfbca7e7b1df,2025,宠物家(后海中心店),A_RETAIL,high,购物服务,专卖店,宠物用品店,中心路2268号曦湾华府裙楼A10,南山区,113.936035520855,22.50429994529661,1.0,SZ500_0039_0025,南山区,0,1,0,0,0
502a4194eadcda80,2025,宠宠小院·宠物寄养·宠物旅游,A_RETAIL|A_BOARDING,high,购物服务,专卖店,宠物用品店,大鹏新区南澳街道新大社区上横岗村43-1号,龙岗区,114.51314572744865,22.531604788037484,1.1,SZ500_0157_0033,龙岗区,0,1,0,1,0
5037a9cad62c15d5,2025,猫小主猫舍(雕塑家园店),A_RETAIL,high,购物服务,专卖店,宠物用品店,中康路8号雕塑家园3024室,福田区,114.05514387241256,22.56626925573908,1.0,SZ500_0063_0039,福田区,0,1,0,0,0
507927f7883456e1,2025,精灵谷宠物店,A_RETAIL,high,购物服务,专卖店,宠物用品店,松白路2222-3-1号,宝安区,113.92331224799976,22.68045679110344,1.0,SZ500_0035_0064,宝安区,0,1,0,0,0
50a30d1482a54904,2025,壹壹宠物,A_RETAIL,high,购物服务,专卖店,宠物用品店,华兴路195号,龙华区,113.9968291774756,22.68489653114052,1.0,SZ500_0050_0065,龙华区,0,1,0,0,0
50b34f5798b86e43,2025,熊熊窝(星河时代店),A_RETAIL,high,购物服务,专卖店,宠物用品店,星河时代B7栋10号商铺,龙岗区,114.2223699560641,22.697085123186984,1.0,SZ500_0097_0069,龙岗区,0,1,0,0,0
50be09a58572462b,2025,喜猫喜狗,A_RETAIL,high,购物服务,专卖店,宠物用品店,中洲华府二期一楼商铺(灵芝地铁站C1口步行280米),宝安区,113.90095312059375,22.57476750648489,1.0,SZ500_0031_0040,宝安区,0,1,0,0,0
50fc973f22725cfb,2025,小宠当家宠物店(中海·阳光玫瑰园店),A_RETAIL,high,购物服务,专卖店,宠物用品店,前海路中海阳光玫瑰园4栋104号铺,南山区,113.89034900834758,22.50549011163401,1.0,SZ500_0029_0025,南山区,0,1,0,0,0
512a8d7b1d426322,2025,深圳派威宠物用品有限公司,A_RETAIL,high,公司企业,公司,公司,新围仔路与新河街交叉口南200米,龙岗区,114.06923242068244,22.622285419375856,1.0,SZ500_0066_0051,龙岗区,0,1,0,0,0
51575b15ee877685,2025,初心宠物生活馆(万科·翡逸郡园店),A_RETAIL,high,购物服务,专卖店,宠物用品店,沙井街道万科翡逸郡园128号商铺,宝安区,113.80967287983712,22.734240182919084,1.0,SZ500_0012_0075,宝安区,0,1,0,0,0
51f07ddf62e49931,2025,全国宠物托运深圳巴士旗舰店,A_RETAIL,high,购物服务,专卖店,宠物用品店,大浪街道同胜工业园路6-1,龙华区,113.979998709984,22.684750514099168,1.0,SZ500_0047_0065,龙华区,0,1,0,0,0
5243096dcd135f5b,2025,星缘宠物店,A_RETAIL,high,购物服务,专卖店,宠物用品店,航城街道鹤洲社区州石路739号恒丰工业城D2栋-A101,宝安区,113.85982779548254,22.63172069758215,1.0,SZ500_0022_0053,宝安区,0,1,0,0,0
52636a20388ee2fc,2025,瑞派宠物医院(康德西丽店),A_MEDICAL,high,医疗保健服务,动物医疗场所,宠物诊所,西丽镇石鼓路金泰楼3006号,南山区,113.94341452067364,22.584647046065488,1.15,SZ500_0040_0043,南山区,1,0,0,0,0
52793d34ad79fdad,2025,捉喵记PLAYCAT(大新店),A_RETAIL,high,购物服务,专卖店,宠物用品店,前海路3260号,南山区,113.91031310905063,22.542225820851904,1.0,SZ500_0033_0033,南山区,0,1,0,0,0
529acbf4e107580a,2025,宠物家(新洲店),A_RETAIL,high,购物服务,专卖店,宠物用品店,沙头街道新华社区新洲三街65号蜜园113,福田区,114.03840331886693,22.526455434897656,1.0,SZ500_0060_0030,福田区,0,1,0,0,0
52abdc3ba4d533bb,2025,松宝动物诊所,A_MEDICAL,high,医疗保健服务,动物医疗场所,宠物诊所,松岗镇松明大道156号-102,宝安区,113.82873813830268,22.768817800864547,1.15,SZ500_0015_0083,宝安区,1,0,0,0,0
52ba8d6993dfb135,2025,卡拉宠物医院(影像中心·住院部),A_MEDICAL,high,医疗保健服务,动物医疗场所,宠物诊所,汇龙湾27号商铺,龙华区,114.02379065706938,22.625447979812463,1.15,SZ500_0056_0052,龙华区,1,0,0,0,0
52cab607eff0d191,2025,乐诚宠物生活馆(南园欣荔苑店),A_RETAIL,high,购物服务,专卖店,宠物用品店,兴工路17号,南山区,113.91479634730273,22.50483826494111,1.0,SZ500_0034_0025,南山区,0,1,0,0,0
52cc5ab1f9267b90,2025,宠知知宠物用品超市,A_RETAIL,high,购物服务,专卖店,宠物用品店,平湖街道福星路宝盛创新产业园E栋108,龙岗区,114.1217884448442,22.685880266137787,1.0,SZ500_0076_0066,龙岗区,0,1,0,0,0
5312522cfb6b8a6c,2025,房东的猫宠物基地猫舍狗舍,A_RETAIL,high,购物服务,专卖店,宠物用品店,沙头街道福强路沙尾东村12栋-1号,福田区,114.03889465923456,22.52230141925297,1.0,SZ500_0060_0029,福田区,0,1,0,0,0
53125d2f7fbb319c,2025,哈尼宠物,A_RETAIL,high,购物服务,专卖店,宠物用品店,香梅路1074香蜜新村西区(香梅地铁站C口步行90米),福田区,114.03554639208072,22.549240132851864,1.0,SZ500_0059_0035,福田区,0,1,0,0,0
5312ce0209603fd9,2025,贝贝宠物医院(总店),A_MEDICAL,high,医疗保健服务,动物医疗场所,宠物诊所,南园街道东园路巴丁街9号铺,福田区,114.09678158079468,22.540616404650898,1.15,SZ500_0072_0033,福田区,1,0,0,0,0
531b7229c70b1857,2025,宠淘圈宠物大药房,A_MEDICAL,high,医疗保健服务,动物医疗场所,宠物诊所,花果路37-1号(东角头地铁站D口步行480米),南山区,113.92342509330332,22.492565716093583,1.15,SZ500_0036_0022,南山区,1,0,0,0,0
536cfcba88f2778a,2025,AC爱宠笑园,A_RETAIL,high,购物服务,专卖店,宠物用品店,西乡街道固戍社区塘西西井2号宝安大道4177号,宝安区,113.8487093742894,22.591786876596768,1.0,SZ500_0020_0044,宝安区,0,1,0,0,0
537710d9115bfa01,2025,宠它·PET(农机五号大院店),A_RETAIL,high,购物服务,专卖店,宠物用品店,洪湖一街2-7号,罗湖区,114.11860825927654,22.56118857231684,1.0,SZ500_0076_0038,罗湖区,0,1,0,0,0
53912d7e6dd4e793,2025,乐添宠物酒店,A_RETAIL|A_BOARDING,high,购物服务,专卖店,宠物用品店,朗麓家园10栋楼下,南山区,113.9908424585509,22.58832652187188,1.1,SZ500_0050_0044,南山区,0,1,0,1,0
53b0e25a16b2e610,2025,爪爪喵星球(壹方城购物中心北区店),A_RETAIL,high,购物服务,专卖店,宠物用品店,新湖路99号壹方城购物中心北区B2层,宝安区,113.8843998388811,22.55505796194445,1.0,SZ500_0028_0036,宝安区,0,1,0,0,0
53f18b450df135b1,2025,萌宠小余,A_RETAIL|B_LEISURE,high,购物服务,专卖店,宠物用品店,坂田街道大发埔社区浦东街13号13-1,龙岗区,114.05383522347596,22.63321529790732,1.0,SZ500_0062_0054,龙华区,0,1,0,0,0
541cb935c62aaf67,2025,哈哈萌宠星球,A_RETAIL|B_LEISURE,high,购物服务,专卖店,宠物用品店,大浪街道龙军工业区商铺102,龙华区,113.998675296277,22.64148037308473,1.0,SZ500_0051_0055,龙华区,0,1,0,0,0
5427fb881403341b,2025,皇家宠物店猫舍犬舍萌宠售卖基地宠物市场,A_RETAIL|B_LEISURE,high,虚拟数据,虚拟店铺,虚拟店铺,观湖街道新田社区谷丰一路80号宿舍9栋三单元302,龙华区,114.08917609349776,22.707043990645776,1.0,SZ500_0069_0070,龙华区,0,1,0,0,0
542ded53698ee2ae,2025,联合宠物医院(南山分院),A_MEDICAL,high,医疗保健服务,动物医疗场所,宠物诊所,南山大道2106-3号,南山区,113.91986496086732,22.53997132487714,1.15,SZ500_0035_0033,南山区,1,0,0,0,0
542fdf36aef9bd2e,2025,宠物之家宠物生活馆(凤凰六分店),A_RETAIL,high,购物服务,专卖店,宠物用品店,福永街道凤凰社区凤凰山大道107号8,宝安区,113.83384391975996,22.691307783755647,1.0,SZ500_0017_0066,宝安区,0,1,0,0,0
5448ddd9379f673f,2025,乐嘟宠物医院,A_MEDICAL,high,医疗保健服务,动物医疗场所,宠物诊所,公明镇振明路66号,光明区,113.8955593555591,22.78047337312635,1.15,SZ500_0029_0086,光明区,1,0,0,0,0
5462e4e488b3ab87,2025,依米猫咪工作室,A_RETAIL,high,购物服务,专卖店,宠物用品店,南湾街道沙塘布翠山东七巷2号103商铺,龙岗区,114.15165983214452,22.61399734990128,1.0,SZ500_0083_0050,龙岗区,0,1,0,0,0
5485e2df320771dd,2025,贝诺宠物会所(大望分院),A_RETAIL,high,购物服务,专卖店,宠物用品店,大望村461-1,罗湖区,114.16888414322788,22.606411074615085,1.0,SZ500_0086_0048,罗湖区,0,1,0,0,0
548c12d1e333f730,2025,芒果宠物店(新银座·尚食荟店),A_RETAIL,high,购物服务,专卖店,宠物用品店,春风路3045号新银座·尚食荟F1层,罗湖区,114.1150011969475,22.538360554847664,1.0,SZ500_0075_0033,罗湖区,0,1,0,0,0
548d6b5063489844,2025,馨诚宠物,A_RETAIL,high,购物服务,专卖店,宠物用品店,宝石东路378号一楼,宝安区,113.93938786119509,22.68350796987375,1.0,SZ500_0039_0064,宝安区,0,1,0,0,0
54b1e7047117dfcb,2025,谢博士宠联宠物医院民治院(猫专科、骨专科),A_MEDICAL,high,医疗保健服务,动物医疗场所,宠物诊所,民塘路万科金域华府二期1栋,龙华区,114.03948041700818,22.601562661939,1.15,SZ500_0060_0047,龙华区,1,0,0,0,0
